번호,개방서비스명,개방서비스아이디,개방자치단체코드,관리번호,인허가일자,인허가취소일자,영업상태구분코드,영업상태명,상세영업상태코드,상세영업상태명,폐업일자,휴업시작일자,휴업종료일자,재개업일자,소재지전화,소재지면적,소재지우편번호,소재지전체주소,도로명전체주소,도로명우편번호,사업장명,최종수정시점,데이터갱신구분,데이터갱신일자,업태구분명,좌표정보x(epsg5174),좌표정보y(epsg5174),점포구분명,Unnamed: 29,위도,경도
1,대규모점포,08_25_01_P,4060000,2025406055207500001,2025-12-30,,1,영업/정상,1,정상영업,,,,,031-960-3194,36314.0,,경기도 파주시 문발동 645 롯데프리미엄아울렛,"경기도 파주시 회동길 390, 롯데프리미엄아울렛 (문발동)",10881,롯데쇼핑(주) 프리미엄아울렛 파주점,2025-12-30 13:32:46,I,2026-01-01 00:20:41,복합쇼핑몰,172931.265518853,468411.848859123,대규모점포,,37.717753,126.693776
8,대규모점포,08_25_01_P,3240000,2025324028907500005,2025-09-15,,1,영업/정상,1,정상영업,,,,,,33071.94,,서울특별시 강동구 둔촌동 170-1 포레온스테이션5,"서울특별시 강동구 양재대로 1360, 포레온스테이션5 (둔촌동)",05409,올림픽파크포레온 스테이션5,2025-10-01 15:28:52,U,2025-10-03 02:40:00,그 밖의 대규모점포,212195.109947109,447197.273286818,대규모점포,,37.526936,127.138751
9,대규모점포,08_25_01_P,3240000,2025324028907500006,2025-09-15,,1,영업/정상,1,정상영업,,,,,,8884.28,,서울특별시 강동구 둔촌동 174-1 올림픽파크포레온,"서울특별시 강동구 양재대로 1300 (둔촌동, 올림픽파크포레온)",05410,올림픽파크포레온 스테이션9,2025-11-25 16:52:26,U,2025-11-27 02:40:00,그 밖의 대규모점포,212027.481158905,446598.591776331,대규모점포,,37.521544,127.136845
15,대규모점포,08_25_01_P,4520000,2025452038307500001,2025-08-08,,1,영업/정상,1,정상영업,,,,,041-544-4864,7643.85,,충청남도 아산시 용화동 111-1,충청남도 아산시 남부로 246 (용화동),31580,온양농협 하나로마트 이순신점,2025-09-05 13:31:32,U,2025-09-07 02:40:00,대형마트,200807.952676366,363254.305043069,대규모점포,,36.770645,127.009845
19,대규모점포,08_25_01_P,4060000,2025406050707500002,2025-07-16,,1,영업/정상,1,정상영업,,,,,0319603194,36314.0,,경기도 파주시 문발동 645 롯데프리미엄아울렛,"경기도 파주시 회동길 390, 롯데프리미엄아울렛 (문발동)",10881,롯데프리미엄아울렛파주점,2025-07-16 14:08:17,I,2025-07-18 00:20:12,복합쇼핑몰,172931.265518853,468411.848859123,대규모점포,,37.717753,126.693776
21,대규모점포,08_25_01_P,3940000,2025394044407500001,2025-06-23,,1,영업/정상,1,정상영업,,,,,02-782-9114,25203.39,,경기도 고양시 일산동구 풍동 1183,,,에비뉴 드 엘로이,2025-07-22 17:10:16,U,2025-07-24 02:40:00,그 밖의 대규모점포,181588.686552499,462370.643368579,대규모점포,,37.663539,126.79212
22,대규모점포,08_25_01_P,4050000,2025405055307500001,2025-06-18,,1,영업/정상,1,정상영업,,,,,031-202-1623,4901.29,,경기도 용인시 기흥구 공세동 359-2,경기도 용인시 기흥구 공세로 202 (공세동),17100,더팩토리 아울렛,2025-08-05 10:32:23,U,2025-08-07 02:40:00,전문점,209055.326991917,415283.591517845,대규모점포,,37.239425,127.102843
26,대규모점포,08_25_01_P,3180000,2025318027007500001,2025-05-28,,1,영업/정상,1,정상영업,,,,,02-2069-2058,3034.02,,서울특별시 영등포구 양평동1가 30,서울특별시 영등포구 선유동1로 9-7 (양평동1가),07262,양남시장정비사업,2025-10-16 10:06:52,U,2025-10-18 02:40:00,그 밖의 대규모점포,190307.528282719,446742.556303998,대규모점포,,37.522867,126.891144
30,대규모점포,08_25_01_P,3520000,2025352024107500001,2025-05-12,,1,영업/정상,1,정상영업,,,,,032-810-2500,9196.74,,인천광역시 연수구 청학동 502-4 롯데마트 연수점,"인천광역시 연수구 청능대로 87, 롯데마트 연수점 (청학동)",21926,롯데마트 연수점,2025-05-12 16:16:27,I,2025-05-14 00:20:35,대형마트,171173.885129435,434824.628551534,대규모점포,,37.415087,126.675167
31,대규모점포,08_25_01_P,3520000,2025352024107500002,2025-05-12,,1,영업/정상,1,정상영업,,,,,032-222-2523,10874.0,,인천광역시 연수구 송도동 6-11 롯데마트,"인천광역시 연수구 컨벤시아대로 177, 롯데마트 (송도동)",21998,롯데마트 송도점,2025-05-12 15:26:06,I,2025-05-14 00:20:35,대형마트,168348.646973511,431855.205739156,대규모점포,,37.388241,126.643381
32,대규모점포,08_25_01_P,4000000,2025400019407500001,2025-05-01,,1,영업/정상,1,정상영업,,,,,031-371-2501,8575.0,,경기도 오산시 오산동 868 롯데마트오산점,"경기도 오산시 경기대로 271, 롯데마트오산점 (오산동)",18135,롯데쇼핑(주)롯데마트,2025-05-07 18:06:04,U,2025-05-09 02:40:00,대형마트,206416.225089197,405292.957866229,대규모점포,,37.149426,127.073016
33,대규모점포,08_25_01_P,3510500,2025351057907500005,2025-04-24,,1,영업/정상,1,정상영업,,,,,032-242-2805,59168.33,,"인천광역시 미추홀구 관교동 15 인천종합터미널,롯데백화점","인천광역시 미추홀구 연남로 35, 인천종합터미널,롯데백화점 (관교동)",22242,롯데쇼핑(주)인천점,2025-04-24 12:58:24,I,2025-04-26 00:10:03,백화점,173499.267314606,437739.32138498,대규모점포,,37.441418,126.70133
49,대규모점포,08_25_01_P,5350000,2024535037407500001,2024-12-27,,1,영업/정상,1,정상영업,,,,,055-371-6000,14842.0,,경상남도 김해시 삼정동 941 메가마트 김해점,"경상남도 김해시 김해대로2492번길 20, 메가마트 김해점 (삼정동)",50935,메가마트 김해점,2024-12-27 10:09:20,I,2024-12-29 00:12:04,대형마트,372941.32985139,193521.212396072,대규모점포,,35.226069,128.900375
56,대규모점포,08_25_01_P,3240000,2024324028907500003,2024-11-14,,1,영업/정상,1,정상영업,,,,,02-557-8828,66630.64,,서울특별시 강동구 고덕동 353-23,,,고덕비즈밸리 유통판매 복합시설,2025-06-25 17:09:55,U,2025-06-27 02:40:00,복합쇼핑몰,213847.923700142,451564.469961363,대규모점포,,37.566261,127.157531
59,대규모점포,08_25_01_P,3020000,2022302020307500001,2024-10-28,,1,영업/정상,1,정상영업,,,,,02-716-3872,13126.83,,서울특별시 용산구 한강로2가 15-2 나진상가,"서울특별시 용산구 청파로 125, 나진상가 (한강로2가)",04370,"나진상가 17,18동",2024-10-31 16:35:01,I,2024-11-02 00:12:14,전문점,196873.001604976,447960.206197372,대규모점포,,37.533884,126.965409
60,대규모점포,08_25_01_P,3150000,2024315020007500002,2024-10-25,,1,영업/정상,1,정상영업,,,,,02-3487-6056,27422.0,,서울특별시 강서구 마곡동 767-4 롯데캐슬 르웨스트,"서울특별시 강서구 마곡중앙로 111 (마곡동, 롯데캐슬 르웨스트)",07797,LEWEST B관,2025-09-18 17:02:44,U,2025-09-21 02:40:00,그 밖의 대규모점포,184504.783680584,451283.535222297,대규모점포,,37.563701,126.825406
61,대규모점포,08_25_01_P,3150000,2024315020007500003,2024-10-25,,1,영업/정상,1,정상영업,,,,,02-3487-6056,32442.38,,서울특별시 강서구 마곡동 767,서울특별시 강서구 마곡중앙로 143 (마곡동),07797,LEWEST A관,2025-08-18 15:01:31,U,2025-08-21 02:40:00,그 밖의 대규모점포,184522.907834771,451531.924488537,대규모점포,,37.565939,126.825605
71,대규모점포,08_25_01_P,5080000,2024508034907500001,2024-08-26,,1,영업/정상,1,정상영업,,,,,,3027.82,,경상북도 구미시 고아읍 원호리 223-3,경상북도 구미시 고아읍 들성로 119-11,39146,HS식자재도매유통 구미점,2025-12-09 09:23:01,U,2025-12-11 02:40:00,대형마트,319916.169862581,296003.377355709,대규모점포,,36.157202,128.333388
72,대규모점포,08_25_01_P,3120000,2024312021907500003,2024-07-25,,1,영업/정상,1,정상영업,,,,,02-304-4025,7391.45,,서울특별시 서대문구 남가좌동 396 DMC금호리첸시아,"서울특별시 서대문구 수색로2길 39, B1,1,2층 (남가좌동, DMC금호리첸시아)",03712,DMC금호리첸시아몰,2024-07-26 11:58:21,I,2024-07-28 00:14:06,그 밖의 대규모점포,192482.416512858,452143.491541077,대규모점포,,37.571549,126.915691
74,대규모점포,08_25_01_P,3930000,2024393048207500001,2024-07-23,,1,영업/정상,1,정상영업,,,,,484-5332,19927.49,,경기도 안산시 단원구 고잔동 533,경기도 안산시 단원구 당곡로 20 (고잔동),15360,현대타워랜드,2024-07-25 14:18:15,I,2024-07-27 00:13:37,그 밖의 대규모점포,185196.01753702,424100.3316153,대규모점포,,37.318791,126.833777
80,대규모점포,08_25_01_P,3560000,2024356022207500001,2024-06-27,,1,영업/정상,1,정상영업,,,,,,3139.28,,인천광역시 서구 청라동 165-12 지젤엠청라,"인천광역시 서구 청라에메랄드로 99, 지젤엠청라 (청라동)",22738,주식회사 청라지젤엠,2024-06-27 13:36:07,I,2024-06-29 00:14:02,그 밖의 대규모점포,169500.0,447993.88,대규모점포,,37.533687,126.655713
84,대규모점포,08_25_01_P,3240000,2024324028907500001,2024-06-18,,1,영업/정상,1,정상영업,,,,,02-479-2384,31500.83,,서울특별시 강동구 천호동 423-200,,,강동밀레니얼 중흥S-클래스 쇼핑센터,2024-12-05 09:09:19,U,2024-12-07 02:40:00,쇼핑센터,211150.812213612,448805.145144628,대규모점포,,37.541436,127.126961
86,대규모점포,08_25_01_P,5710000,2024571023607500001,2024-05-28,,1,영업/정상,1,정상영업,,,,,043-223-3458,47307.68,,충청북도 청주시 흥덕구 가경동 1416 고속버스터미널,"충청북도 청주시 흥덕구 2순환로 1229, 고속버스터미널 (가경동)",28396,청주센트럴시티,2025-10-16 15:51:55,U,2025-10-18 02:40:00,쇼핑센터,238449.433440246,347396.698510935,대규모점포,,36.626976,127.430661
87,대규모점포,08_25_01_P,4711000,2024471101507500002,2024-05-27,,1,영업/정상,1,정상영업,,,,,063-540-9311,21138.68,,전북특별자치도 김제시 용지면 부교리 57-22 모다아울렛,"전북특별자치도 김제시 용지면 콩쥐팥쥐로 855, 모다아울렛",54334,모다아울렛,2024-05-27 18:46:20,I,2024-05-29 00:14:27,대형마트,199319.139170008,257448.484296989,대규모점포,,35.817141,126.99327
88,대규모점포,08_25_01_P,4050000,2024405053807500001,2024-05-20,,1,영업/정상,1,정상영업,,,,,07052281224,8528.19,,경기도 용인시 기흥구 중동 31-5,경기도 용인시 기흥구 동백죽전대로175번길 6 (중동),16995,링크맘,2025-10-02 15:46:32,U,2025-10-05 02:40:00,전문점,214120.476410312,417325.614126043,대규모점포,,37.257761,127.159965
89,대규모점포,08_25_01_P,5670000,2024567074607500007,2024-05-13,,1,영업/정상,1,정상영업,,,,,055-240-1041,26674.69,,경상남도 창원시 마산합포구 산호동 10-3 신세계백화점,"경상남도 창원시 마산합포구 합포로 251, 신세계백화점 (산호동)",51330,(주)신세계 마산점,2024-05-13 10:19:33,I,2024-05-15 00:14:39,백화점,344361.357213009,192302.09720122,대규모점포,,35.219601,128.58636
91,대규모점포,08_25_01_P,3170000,2024317025707500001,2024-04-29,,1,영업/정상,1,정상영업,,,,,02-890-8122,0.0,,서울특별시 금천구 시흥동 992-47 홈플러스테스테스코(주)시흥점,"서울특별시 금천구 시흥대로 201, 홈플러스테스테스코(주)시흥점 (시흥동)",08632,홈플러스 주식회사,2024-04-29 15:44:46,I,2024-05-01 00:15:26,대형마트,191152.432649234,438865.160717275,대규모점포,,37.4519,126.900797
94,대규모점포,08_25_01_P,5670000,2024567074607500005,2024-04-24,,1,영업/정상,1,정상영업,,,,,055-211-1052,10909.0,,경상남도 창원시 성산구 중앙동 91 창원이마트,"경상남도 창원시 성산구 원이대로 608, 창원이마트 (중앙동)",51515,이마트 창원점,2024-04-24 13:40:14,I,2024-04-26 00:14:55,대형마트,352870.655048828,193192.657445858,대규모점포,,35.226366,128.67995
95,대규모점포,08_25_01_P,5670000,2024567074607500006,2024-04-24,,1,영업/정상,1,정상영업,,,,,,11192.0,,경상남도 창원시 마산합포구 중앙동3가 4-1 이마트,"경상남도 창원시 마산합포구 서성로 3, 이마트 (중앙동3가)",51735,이마트 마산점,2024-04-24 13:35:35,I,2024-04-26 00:14:55,대형마트,342886.064848583,189864.336045851,대규모점포,,35.197848,128.569739
96,대규모점포,08_25_01_P,5310000,2024531031407500001,2024-04-23,,1,영업/정상,1,정상영업,,,,,,3240.46,,"경상남도 진주시 정촌면 예하리 1279-1 2, 9, 10",,,진주남부농협 하나로마트,2024-07-20 14:43:52,U,2024-07-22 02:40:00,그 밖의 대규모점포,300211.354606774,181815.943424691,대규모점포,,35.130479,128.100275
98,대규모점포,08_25_01_P,4400000,2024440029707500001,2024-04-15,,1,영업/정상,1,정상영업,,,,,043-641-1052,0.0,,충청북도 제천시 강제동 684 제천E-MART,"충청북도 제천시 장평천로 11, 제천E-MART (강제동)",27198,이마트,2024-04-15 10:22:05,I,2024-04-17 00:15:02,대형마트,308612.065962418,403106.413353613,대규모점포,,37.123454,128.222936
103,대규모점포,08_25_01_P,5670000,2024567074607500004,2024-03-26,,1,영업/정상,1,정상영업,,,,,055-282-8142,5720.0,,경상남도 창원시 성산구 대방동 355 성원3차아파트상가,"경상남도 창원시 성산구 대암로 80, 성원3차아파트상가 (대방동)",51462,성원3차종합상가,2024-03-26 16:37:10,I,2024-03-28 00:15:57,그 밖의 대규모점포,355345.158946828,191953.984254067,대규모점포,,35.214826,128.706886
105,대규모점포,08_25_01_P,4711000,2024471101507500001,2024-03-07,,1,영업/정상,1,정상영업,,,,,063-540-8230,13766.59,,전북특별자치도 김제시 검산동 838,전북특별자치도 김제시 금성로 114 (검산동),54399,홈플러스(주) 김제점,2024-03-07 15:37:26,I,2024-03-09 00:15:37,대형마트,191146.883710671,255517.370352134,대규모점포,,35.799697,126.902862
106,대규모점포,08_25_01_P,3510500,2024351057907500006,2024-03-04,,1,영업/정상,1,정상영업,,,,,,15498.0,,인천광역시 미추홀구 학익동 720-16 홈플러스,"인천광역시 미추홀구 소성로 6, 홈플러스 (학익동)",22201,홈플러스 (주) 인하점,2025-01-13 17:08:25,U,2025-01-15 02:40:00,대형마트,169028.062637712,438450.444079289,대규모점포,,37.447686,126.650776
107,대규모점포,08_25_01_P,3510500,2024351057907500007,2024-03-04,,1,영업/정상,1,정상영업,,,,,032-719-2020,19460.55,,인천광역시 미추홀구 숭의동 180-6,"인천광역시 미추홀구 석정로 51, 홈플러스 (숭의동)",22160,홈플러스 인천 숭의점,2024-03-04 11:14:32,I,2024-03-06 00:15:38,대형마트,,,대규모점포,,,
110,대규모점포,08_25_01_P,5670000,2024567074607500002,2024-03-04,,1,영업/정상,1,정상영업,,,,,055-540-8122,12780.0,,경상남도 창원시 진해구 이동 536-10 홈플러스진해점,"경상남도 창원시 진해구 충장로 356, 홈플러스진해점 (이동)",51687,홈플러스 진해점,2024-03-04 18:30:11,I,2024-03-06 00:15:38,대형마트,354027.572779734,185091.047013466,대규모점포,,35.153197,128.69114
111,대규모점포,08_25_01_P,5670000,2024567074607500003,2024-03-04,,1,영업/정상,1,정상영업,,,,,055-259-8120,27684.74,,경상남도 창원시 마산회원구 양덕동 151-1 삼성홈플러스,"경상남도 창원시 마산회원구 삼호로 56, 삼성홈플러스 (양덕동)",51320,홈플러스 마산점,2024-03-04 18:22:34,I,2024-03-06 00:15:38,대형마트,344300.256802514,192639.515073523,대규모점포,,35.22265,128.585748
112,대규모점포,08_25_01_P,5670000,2024567074607500001,2024-03-04,,1,영업/정상,1,정상영업,,,,,055-270-8124,30100.0,,경상남도 창원시 의창구 팔용동 30-3 삼성홈플러스,"경상남도 창원시 의창구 창원대로 415, 삼성홈플러스 (팔용동)",51393,홈플러스 창원점,2024-03-04 18:19:11,I,2024-03-06 00:15:38,대형마트,349554.531300316,193997.823602934,대규모점포,,35.23412,128.643685
113,대규모점포,08_25_01_P,3510500,2024351057907500005,2024-02-26,,1,영업/정상,1,정상영업,,,,,032-459-6002,34492.0,,인천광역시 미추홀구 주안동 0 포레나 미추홀,"인천광역시 미추홀구 경인로 372 (주안동, 포레나 미추홀)",22148,아인애비뉴 메디&라이프 복합몰,2024-12-19 11:36:58,U,2024-12-21 02:40:00,그 밖의 대규모점포,,,대규모점포,,,
124,대규모점포,08_25_01_P,3150000,2024315020007500001,2024-01-10,,1,영업/정상,1,정상영업,,,,,02-6925-2518,45167.97,,서울특별시 강서구 마곡동 769,"서울특별시 강서구 공항대로 165, (마곡동 769 및 769-1)        [마곡지구 특별계획구역 CP4블록] (마곡동)",07800,원그로브몰,2024-12-09 16:02:51,U,2024-12-11 02:40:00,쇼핑센터,184449.736274095,451015.135227088,대규모점포,,37.561282,126.824788
126,대규모점포,08_25_01_P,3040000,2024304019007500001,2024-01-05,,1,영업/정상,1,정상영업,,,,,02-444-8604,34138.84,,서울특별시 광진구 자양동 680-63 판매시설,"서울특별시 광진구 아차산로 402, 판매시설 (자양동)",05050,넥스트커넥트피에프브이 (주)이스트폴 판매시설,2025-09-03 16:30:07,U,2025-09-05 02:40:00,쇼핑센터,207770.197118183,448131.0613924,대규모점포,,37.535397,127.088702
128,대규모점포,08_25_01_P,3170000,2023317025707500001,2023-12-29,,1,영업/정상,1,정상영업,,,,,02-422-0310,18020.0,,서울특별시 금천구 가산동 60-26,서울특별시 금천구 디지털로 178 (가산동),08513,가산퍼블릭 상업시설,2025-01-09 10:55:08,U,2025-01-11 02:40:00,그 밖의 대규모점포,189930.50790426,441616.460710064,대규모점포,,37.476677,126.88695
132,대규모점포,08_25_01_P,3510500,2023351057907500006,2023-12-18,,1,영업/정상,1,정상영업,,,,,032-459-6002,6472.96,,인천광역시 미추홀구 주안동 0 포레나 미추홀,"인천광역시 미추홀구 경인로 372 (주안동, 포레나 미추홀)",22148,아인애비뉴 메디&라이프 복합몰,2024-02-21 17:51:41,U,2024-02-23 02:40:00,그 밖의 대규모점포,,,대규모점포,,,
135,대규모점포,08_25_01_P,3980000,2023398012907500001,2023-12-04,,1,영업/정상,1,정상영업,,,,,031-513-6001,18408.86,,경기도 구리시 인창동 430 구리유통종합상가,"경기도 구리시 동구릉로136번길 57, 구리유통종합상가 A동 (인창동)",11915,시민마트,2023-12-04 14:24:26,I,2023-12-06 00:17:03,대형마트,212367.118425352,456712.576784184,대규모점포,,37.612665,127.140856
141,대규모점포,08_25_01_P,3740000,2023374039007500005,2023-10-30,,1,영업/정상,1,정상영업,,,,,02-6921-1638,103145.33,,경기도 수원시 장안구 정자동 111-14,경기도 수원시 장안구 수성로 175 (정자동),16318,(주) 스타필드 수원,2025-08-19 09:25:52,U,2025-08-21 02:40:00,복합쇼핑몰,199161.380909543,420620.351156652,대규모점포,,37.287554,126.991333
142,대규모점포,08_25_01_P,3490000,2023349019107500001,2023-10-27,,1,영업/정상,1,정상영업,,,,,032-717-0207,81176.59,,인천광역시 중구 운서동 2955,인천광역시 중구 용유로 700 (운서동),22382,인스파이어 인티그레이티드 리조트,2025-12-05 16:54:29,U,2025-12-07 02:40:00,쇼핑센터,145795.71564294,440225.472800033,대규모점포,,37.462608,126.388108
146,대규모점포,08_25_01_P,4351000,2023435100907500001,2023-09-13,,1,영업/정상,1,정상영업,,,,,033-671-5810,3276.22,,강원특별자치도 양양군 강현면 물치리 126-11,강원특별자치도 양양군 강현면 물치천로 14,25061,강현농협 하나로마트,2024-06-14 10:28:02,U,2024-06-16 02:40:00,그 밖의 대규모점포,340693.912244024,517983.699145683,대규모점포,,38.153804,128.605921
147,대규모점포,08_25_01_P,3150000,2023315020007500002,2023-09-07,,1,영업/정상,1,정상영업,,,,,,3015.0,,서울특별시 강서구 화곡동 1175 화곡 더리브 스카이,"서울특별시 강서구 가로공원로80길 40 (화곡동, 화곡 더리브 스카이)",07765,화곡 더리브스카이,2025-08-22 11:09:12,U,2025-08-24 02:40:00,그 밖의 대규모점포,,,대규모점포,,,
152,대규모점포,08_25_01_P,3300000,2023330011007500002,2023-07-19,,1,영업/정상,1,정상영업,,,,,051-552-0256,10524.19,,부산광역시 동래구 온천동 147-6 더샵 온천헤리티지,"부산광역시 동래구 온천장로119번길 56 (온천동, 더샵 온천헤리티지)",47708,더샵 온천헤리티지스퀘어,2024-01-10 09:29:14,U,2024-01-12 02:40:00,그 밖의 대규모점포,389539.18205554,193427.379866164,대규모점포,,35.222227,129.08256
153,대규모점포,08_25_01_P,3900000,2010390012307500001,2023-07-03,,1,영업/정상,1,정상영업,,,,,02-6918-1234,14847.87,423-051,경기도 광명시 소하1동 1339번지 3호,경기도 광명시 소하로 97 (소하동),423-051,(주) 이마트 광명소하점,2024-05-20 14:06:40,U,2024-05-22 02:40:00,대형마트,189714.449800306,438279.937828733,대규모점포,,37.446613,126.884554
155,대규모점포,08_25_01_P,4490000,2023449037507500001,2023-06-21,,1,영업/정상,1,정상영업,,,,,041-571-0300,8316.34,,충청남도 천안시 서북구 쌍용동 1367,충청남도 천안시 서북구 월봉로 95 (쌍용동),31171,대하식자재마트 천안점,2023-09-05 13:14:57,U,2023-09-07 02:40:00,대형마트,210350.365980618,366539.832359485,대규모점포,,36.800196,127.116772
157,대규모점포,08_25_01_P,3530000,2023353017907500001,2023-06-12,,1,영업/정상,1,정상영업,,,,,02-380-9843,19686.36,,인천광역시 남동구 구월동 1549,,,(주)이마트 트레이더스 구월점,2024-04-29 13:03:56,U,2024-05-01 02:40:00,대형마트,174074.002286488,437545.395950524,대규모점포,,37.439687,126.707831
167,대규모점포,08_25_01_P,4050000,2023405053807500001,2023-04-17,,1,영업/정상,1,정상영업,,,,,031-265-3555,4305.19,,경기도 용인시 수지구 상현동 166-8,,,느티나무마트,2023-12-19 09:43:12,U,2023-12-21 02:40:00,대형마트,206535.42430122,422654.398675024,대규모점포,,37.305859,127.074508
169,대규모점포,08_25_01_P,4010000,2023401031707500001,2023-04-03,,1,영업/정상,1,정상영업,,,,,070-7773-5390,44052.4,,경기도 시흥시 정왕동 2684 아쿠아펫랜드,"경기도 시흥시 거북섬북로 54, 아쿠아펫랜드 (정왕동)",15119,아쿠아펫랜드,2023-04-03 15:02:56,I,2023-04-05 00:20:25,그 밖의 대규모점포,171450.600413716,425422.79435828,대규모점포,,37.330385,126.678656
171,대규모점포,08_25_01_P,3910000,2023391041807500001,2023-03-28,,1,영업/정상,1,정상영업,,,,,031-8065-5947,31268.84,,경기도 평택시 고덕동 2618-3 힐스테이트고덕센트럴,"경기도 평택시 고덕국제대로 77 (고덕동, 힐스테이트고덕센트럴)",18018,브리티시 고덕,2024-12-04 10:29:43,U,2024-12-06 02:40:00,그 밖의 대규모점포,203709.243236458,393590.810761107,대규모점포,,37.043997,127.042488
175,대규모점포,08_25_01_P,3510500,2023351057907500001,2023-02-27,,1,영업/정상,1,정상영업,,,,,032-830-2512,17282.8,,인천광역시 미추홀구 학익동 580-1,인천광역시 미추홀구 독배로 230(학익동),22205,스타오씨엘 에비뉴I,2023-10-31 11:00:15,U,2023-11-02 02:40:00,그 밖의 대규모점포,169123.759948513,437732.772860437,대규모점포,,37.441223,126.651888
179,대규모점포,08_25_01_P,3560000,2023356022207500001,2023-01-12,,1,영업/정상,1,정상영업,,,,,02-2630-2671,13476.89,,인천광역시 서구 청라동 12-2 (투자유치용지 5-1블록),,,코스트코 홀세일 청라점,2024-09-24 09:55:01,U,2024-09-26 02:40:00,대형마트,166063.431383773,448666.223800277,대규모점포,,37.539624,126.616802
180,대규모점포,08_25_01_P,5530000,2023553047907500001,2023-01-09,,1,영업/정상,1,정상영업,,,,,,5850.02,,경기도 화성시 봉담읍 상리 691,,,이지바이 봉담,2025-09-04 13:27:11,U,2025-09-06 02:40:00,대형마트,,,대규모점포,,,
182,대규모점포,08_25_01_P,3180000,2022318023907500001,2022-12-14,,1,영업/정상,1,정상영업,,,,,02-585-0580,5824.25,,서울특별시 영등포구 당산동2가 165 한화포레나당산,"서울특별시 영등포구 당산로 83 (당산동2가, 한화포레나당산)",07264,포레나당산동역세권청년주택 상업시설,2024-01-08 09:44:36,U,2024-01-10 02:40:00,그 밖의 대규모점포,,,대규모점포,,,
188,대규모점포,08_25_01_P,4181000,2022418034907500001,2022-08-31,,1,영업/정상,1,정상영업,,,,,033-269-0100,25063.95,,강원특별자치도 춘천시 온의동 575 춘천 센트럴타워 푸르지오,"강원특별자치도 춘천시 방송길 77(온의동, 춘천 센트럴타워 푸르지오)",24363,춘천 센트럴타워 푸르지오 프리미엄몰,2024-05-08 10:13:07,U,2024-05-10 02:40:00,그 밖의 대규모점포,263345.431242431,485397.525389929,대규모점포,,37.868991,127.720703
195,대규모점포,08_25_01_P,3190000,2022319021607500001,2022-07-22,,1,영업/정상,1,정상영업,,,,,02-792-0653,8995.84,,서울특별시 동작구 노량진동 16-1 노량진 드림스퀘어 복합빌딩,"서울특별시 동작구 노들로2길 7, 노량진 드림스퀘어 복합빌딩 (노량진동)",06900,노량진 드림스퀘어,2025-12-03 09:26:46,U,2025-12-05 02:40:00,그 밖의 대규모점포,194571.152376388,445790.549860682,대규모점포,,37.514325,126.939383
199,대규모점포,08_25_01_P,3050000,2022305014007500001,2022-07-11,,1,영업/정상,1,정상영업,,,,,02-721-8286,22487.6,,서울특별시 동대문구 용두동 39-1 청량리역한양수자인그라시엘,"서울특별시 동대문구 고산자로32길 78 (용두동, 청량리역한양수자인그라시엘)",02561,청량리역 한양수자인 그라시엘 판매시설,2023-06-29 10:04:00,U,2023-07-01 02:40:00,그 밖의 대규모점포,203728.022004023,452778.965235022,대규모점포,,37.577299,127.042991
202,대규모점포,08_25_01_P,3020000,2022302015007500002,2022-06-29,,1,영업/정상,1,정상영업,,,,,02-3670-0801,9879.92,,서울특별시 용산구 한강로3가 1-1 나진상가,"서울특별시 용산구 청파로 109, 나진상가 14동 (한강로3가)",04370,나진전자월드상가,2022-06-29 10:52:49,I,2022-07-01 00:22:45,전문점,196697.031086973,447931.108267379,대규모점포,,37.533621,126.963419
217,대규모점포,08_25_01_P,4050000,2022405051807500001,2022-03-25,,1,영업/정상,1,정상영업,,,,,,4099.6,,경기도 용인시 처인구 양지면 양지리 112,경기도 용인시 처인구 양지면 죽양대로 2309,17158,세영산업주식회사,2023-01-30 09:54:51,U,2023-02-01 02:40:00,전문점,226267.419758712,414698.939838046,대규모점포,,37.233832,127.296798
218,대규모점포,08_25_01_P,4530000,2022453039107500001,2022-03-23,,1,영업/정상,1,정상영업,,,,,041-669-1378,4150.89,,충청남도 서산시 잠홍동 568,충청남도 서산시 고운로 353(잠홍동),31966,충서원예농협 하나로마트,2025-06-05 17:04:11,U,2025-06-08 02:40:00,대형마트,152914.504639942,365160.666934624,대규모점포,,36.786651,126.47329
219,대규모점포,08_25_01_P,3160000,2022316015907500001,2022-03-18,,1,영업/정상,1,정상영업,,,,,02-528-0450,40883.22,,서울특별시 구로구 고척동 100-7,,,고척아이파크쇼핑센터,2023-10-12 17:09:57,U,2023-10-14 02:40:00,쇼핑센터,187477.579440706,444045.294921843,대규모점포,,37.498531,126.859177
221,대규모점포,08_25_01_P,3270000,2006327006407500001,2022-03-07,,1,영업/정상,1,정상영업,,,,1979-12-24,051  6459691,2511.4,601-806,부산광역시 동구 범일2동 290번지 3호,부산광역시 동구 범일로65번길 8 (범일동),601-806,사단법인 부산남문시장번영회,2023-03-29 13:45:13,U,2023-04-01 02:40:00,그 밖의 대규모점포,387566.848456349,183802.134192251,대규모점포,,35.135897,129.058723
222,대규모점포,08_25_01_P,3740000,2022374039007500001,2022-02-22,,1,영업/정상,1,정상영업,,,,,02-2015-8524,5926.48,,경기도 수원시 권선구 서둔동 296-124,경기도 수원시 권선구 세화로134번길 31(서둔동),16621,홈씨씨 수원점,2024-05-27 16:59:27,U,2024-05-29 02:40:00,전문점,199672.086338054,418258.297963828,대규모점포,,37.266271,126.997094
230,대규모점포,08_25_01_P,3910000,2021391039707500001,2021-12-14,,1,영업/정상,1,정상영업,,,,,0316601000,29652.0,,경기도 평택시 장당동 154-2,경기도 평택시 경기대로 945(장당동),17787,평택프리미엄아울렛,2023-04-26 18:32:14,U,2023-05-26 08:48:36,전문점,206113.48015676,392491.288366379,대규모점포,,37.034077,127.069505
231,대규모점포,08_25_01_P,3720000,2021372017807500002,2021-12-09,,1,영업/정상,1,정상영업,,,,,02-3460-6611,4731.14,,울산광역시 북구 진장동 1048-3,울산광역시 북구 진장유통로 65(진장동),44249,삼성전자 판매 북울산본점,2021-12-09 15:38:31,I,2021-12-11 00:22:54,전문점,413465.24843819,233302.05395249,대규모점포,,35.576522,129.35558
232,대규모점포,08_25_01_P,4050000,2021405051807500001,2021-12-02,,1,영업/정상,1,정상영업,,,,,031-335-8808,4106.09,,경기도 용인시 처인구 고림동 599-8,경기도 용인시 처인구 고림로 206(고림동),17149,정동마트,2023-04-17 13:06:51,U,2023-04-19 02:40:00,대형마트,219741.52429013,416424.828522115,대규모점포,,37.249543,127.223304
235,대규모점포,08_25_01_P,3720000,2021372017807500001,2021-11-10,,1,영업/정상,1,정상영업,,,,,052-248-0110,3240.43,,울산광역시 북구 진장동 1048-1,울산광역시 북구 진장유통1로 60(진장동),44249,진장 회 수산센터,2021-11-29 17:04:08,U,2021-12-01 02:40:00,그 밖의 대규모점포,413428.796160802,233369.961340036,대규모점포,,35.577141,129.355196
236,대규모점포,08_25_01_P,5540000,2021554025007500001,2021-11-03,,1,영업/정상,1,정상영업,,,,,031-767-8324,11697.53,,경기도 광주시 경안동 447,경기도 광주시 경안로41번길 6(경안동),12760,광주 금호 리첸시아 센트럴 스퀘어,2023-04-28 09:39:57,U,2023-04-30 02:40:00,그 밖의 대규모점포,222618.188936667,434045.266636268,대규모점포,,37.408241,127.256263
247,대규모점포,08_25_01_P,6510000,2021651021607500001,2021-07-26,,1,영업/정상,1,정상영업,,,,,064-795-0000,8942.96,,제주특별자치도 제주시 노형동 925 제주 드림타워 복합리조트,"제주특별자치도 제주시 노연로 12, 제주 드림타워 복합리조트 (노형동)",63082,제주드림타워,2021-07-26 12:24:39,I,2021-07-28 00:22:52,그 밖의 대규모점포,151732.711618361,-1108.97482994933,대규모점포,,33.485337,126.481477
249,대규모점포,08_25_01_P,3010000,2021301016607500001,2021-07-16,,1,영업/정상,1,정상영업,,,,,02-3452-2379,8767.97,,서울특별시 중구 남대문로2가 9-1,,,센터포인트 명동,2022-05-10 10:26:39,U,2022-05-12 02:40:00,쇼핑센터,198401.701305913,451374.312212737,대규모점포,,37.564649,126.982697
251,대규모점포,08_25_01_P,3490000,2021349019107500001,2021-06-29,,1,영업/정상,1,정상영업,,,,,,6296.89,,인천광역시 중구 운서동 2807-4 1~2층,"인천광역시 중구 흰바위로59번길 8, 1~2층 (운서동)",22371,버터플라이시티,2021-07-27 13:19:41,U,2021-07-29 02:40:00,그 밖의 대규모점포,155043.212248761,443462.941663413,대규모점포,,37.492273,126.492432
252,대규모점포,08_25_01_P,4840000,2021484012707500001,2021-06-22,,1,영업/정상,1,정상영업,,,,,061-760-8122,13558.2,,전라남도 광양시 중동 1811-1 홈플러스 광양점,"전라남도 광양시 항만11로 70, 홈플러스 광양점 (중동)",57793,홈플러스 광양점,2024-03-14 17:39:27,U,2024-03-16 02:40:00,대형마트,263409.919971471,159060.647898764,대규모점포,,34.928372,127.694809
254,대규모점포,08_25_01_P,3990000,2021399046507500001,2021-06-17,,1,영업/정상,1,정상영업,,,,,02-2211-1311,9057.85,,경기도 남양주시 화도읍 묵현리 368-2,경기도 남양주시 화도읍 경춘로 1725,12171,한성몰 남양주점,2021-06-17 18:06:48,I,2021-06-19 00:22:54,전문점,224788.908585668,461612.798454074,대규모점포,,37.656565,127.281709
255,대규모점포,08_25_01_P,3040000,2021304019007500001,2021-06-08,,1,영업/정상,1,정상영업,,,,,024578045,3208.98,,서울특별시 광진구 구의동 66-25,서울특별시 광진구 광나루로39길 11 (구의동),04977,구의 자이르네 판매시설,2025-03-18 17:07:41,U,2025-03-20 02:40:00,그 밖의 대규모점포,207775.86513205,449252.386906411,대규모점포,,37.5455,127.088778
257,대규모점포,08_25_01_P,3740000,2021374039007500001,2021-05-25,,1,영업/정상,1,정상영업,,,,,02-3404-4921,5855.48,,경기도 수원시 장안구 정자동 950 화서역 파크푸르지오,"경기도 수원시 장안구 대평로 27 (정자동, 화서역 파크푸르지오)",16318,화서역파크푸르지오 오피스텔&상가,2023-10-23 10:34:25,U,2023-10-25 02:40:00,복합쇼핑몰,199460.301398641,420871.789200422,대규모점포,,37.289819,126.994704
260,대규모점포,08_25_01_P,3670000,2021367017407500001,2021-04-28,,1,영업/정상,1,정상영업,,,,,1588-1234,82790.1,,대전광역시 유성구 도룡동 3-1,대전광역시 유성구 엑스포로 1(도룡동),34126,대전신세계 엑스포점,2025-12-15 16:11:32,U,2025-12-17 02:40:00,백화점,234414.00794623,319679.535632277,대규모점포,,36.377362,127.384314
262,대규모점포,08_25_01_P,4000000,2021400019407500001,2021-04-22,,1,영업/정상,1,정상영업,,,,,,0.0,,경기도 오산시 원동 773-1,경기도 오산시 원동로37번길 27 (원동),18141,오산 원동 상점가,2024-05-09 10:25:16,U,2024-05-11 02:40:00,구분없음,206226.32427256,404756.266645655,대규모점포,,37.144592,127.070874
264,대규모점포,08_25_01_P,4020000,2021402022707500001,2021-04-09,,1,영업/정상,1,정상영업,,,,,031-8003-6400,4763.86,,경기도 군포시 도마교동 478,경기도 군포시 송부로96번길 12 (도마교동),15885,군포송정 풍산리치안 플랫몰,2021-04-15 14:40:08,U,2021-04-17 02:40:00,그 밖의 대규모점포,193182.580781349,423740.621946567,대규모점포,,37.315643,126.923882
265,대규모점포,08_25_01_P,3780000,2021378033407500001,2021-04-08,,1,영업/정상,1,정상영업,,,,,02-6959-7817,19968.31,,경기도 성남시 수정구 시흥동 288-2,경기도 성남시 수정구 창업로 17 (시흥동),13449,파미어스몰,2025-05-13 16:41:14,U,2025-05-15 02:40:00,쇼핑센터,208613.865984257,434443.112052722,대규모점포,,37.412061,127.098088
268,대규모점포,08_25_01_P,3980000,2021398012907500001,2021-04-06,,1,영업/정상,1,정상영업,,,,,031-513-6001,18408.86,,경기도 구리시 인창동 430 구리유통종합상가,"경기도 구리시 동구릉로136번길 57, 구리유통종합상가 할인점동 (인창동)",11915,시민마트,2023-07-14 15:54:24,U,2023-07-16 02:40:00,구분없음,212367.118425352,456712.576784184,대규모점포,,37.612665,127.140856
270,대규모점포,08_25_01_P,3400000,2021340010907500001,2021-03-31,,1,영업/정상,1,정상영업,,,,,02-6959-7869,18430.51,,부산광역시 기장군 기장읍 시랑리 산 46,,,부산 오시리아 테마파크 판매시설,2021-07-13 20:35:21,U,2021-07-15 02:40:00,쇼핑센터,401648.172377821,190623.521052889,대규모점포,,35.194615,129.214784
272,대규모점포,08_25_01_P,3900000,2021390026407500002,2021-03-05,,1,영업/정상,1,정상영업,,,,,070-4770-0796,28985.96,,경기도 광명시 일직동 512-3,경기도 광명시 양지로 17(일직동),14345,에이케이플라자(주) 광명점,2025-01-09 10:16:24,U,2025-01-11 02:40:00,쇼핑센터,189541.850018502,435187.738812827,대규모점포,,37.41875,126.882647
274,대규모점포,08_25_01_P,3330000,2021333015107500001,2021-02-25,,1,영업/정상,1,정상영업,,,,,051-781-8001,28555.44,,부산광역시 해운대구 중동 1829 엘시티,"부산광역시 해운대구 달맞이길 30 (중동, 엘시티)",48099,엘시티 더 몰,2024-04-03 10:23:15,U,2024-04-05 02:40:00,그 밖의 대규모점포,397540.467298187,186751.661439715,대규모점포,,35.160557,129.168787
275,대규모점포,08_25_01_P,5530000,2021553038907500001,2021-02-25,,1,영업/정상,1,정상영업,,,,,02-380-9429,14828.36,,경기도 화성시 오산동 1022,경기도 화성시 동탄대로 451(오산동),18481,트레이더스 홀세일 클럽 동탄점,2024-04-23 09:24:01,U,2024-04-25 02:40:00,대형마트,208551.191176942,410187.304225812,대규모점포,,37.19351,127.097104
276,대규모점포,08_25_01_P,3640000,2017364011407500001,2021-02-22,,1,영업/정상,1,정상영업,,,,,0422818001,8435.05,,대전광역시 동구 가오동 557번지 패션아일랜드,대전광역시 동구 은어송로 72 (가오동),34681,홈플러스(주)대전가오점,2024-02-27 17:01:38,U,2024-02-29 02:40:00,대형마트,241064.767614979,311893.45796323,대규모점포,,36.306938,127.45802
278,대규모점포,08_25_01_P,5530000,2010553021407500001,2021-02-10,,1,영업/정상,1,정상영업,,,,,03180157000,7668.62,445-160,경기도 화성시 반송동 98번지,경기도 화성시 동탄중앙로 200 (반송동),445-160,홈플러스(주)화성동탄점,2024-03-12 17:36:32,U,2024-03-14 02:40:00,대형마트,206007.25472163,411214.942059565,대규모점포,,37.202789,127.068459
279,대규모점포,08_25_01_P,4490000,2021449037507500002,2021-02-10,,1,영업/정상,1,정상영업,,,,,070-4060-4128,8226.0,,충청남도 천안시 서북구 쌍용동 1367,충청남도 천안시 서북구 월봉로 95 (쌍용동),31171,맘마마트 천안점,2021-07-09 20:00:41,U,2021-07-11 02:40:00,대형마트,210350.365980618,366539.832359485,대규모점포,,36.800196,127.116772
280,대규모점포,08_25_01_P,6520000,2020652017807500001,2020-11-25,,1,영업/정상,1,정상영업,,,,,064-908-6013,8834.54,,제주특별자치도 서귀포시 안덕면 서광리 산 24,제주특별자치도 서귀포시 안덕면 신화역사로304번길 38,63522,제주 프리미엄 전문점,2025-11-11 19:04:21,U,2025-11-13 02:40:00,전문점,136356.94232239,-20780.8074935676,대규모점포,,33.307181,126.317438
281,대규모점포,08_25_01_P,5710000,2020571018307500002,2020-11-23,,1,영업/정상,1,정상영업,,,,,043-268-6553,10859.11,,충청북도 청주시 흥덕구 화계동 196,충청북도 청주시 흥덕구 엘지로 34 (화계동),28293,다농엘마트,2020-11-20 16:56:39,I,2020-11-22 00:23:08,대형마트,238982.031354431,351205.893661209,대규모점포,,36.661279,127.436808
282,대규모점포,08_25_01_P,3520000,2020352017507500002,2020-10-28,,1,영업/정상,1,정상영업,,,,,032-228-1218,16105.88,,인천광역시 연수구 송도동 93,인천광역시 연수구 컨벤시아대로 204 (송도동),22004,인천 스타트업파크,2024-02-13 17:07:15,U,2024-02-15 02:40:00,그 밖의 대규모점포,168034.064747116,431810.029413724,대규모점포,,37.387823,126.639831
284,대규모점포,08_25_01_P,3180000,2020318023907500002,2020-10-12,,1,영업/정상,1,정상영업,,,,,02-2038-8575,3613.32,,서울특별시 영등포구 양평동1가 247 영등포 중흥 S-CLASS,"서울특별시 영등포구 선유서로24길 6 (양평동1가, 영등포 중흥 S-CLASS)",07273,영등포 중흥 에스클래스,2021-04-07 10:37:13,U,2021-04-09 02:40:00,그 밖의 대규모점포,189877.186450371,446802.004602857,대규모점포,,37.523398,126.886275
285,대규모점포,08_25_01_P,5710000,2020571018307500001,2020-09-23,,1,영업/정상,1,정상영업,,,,,043-215-4200,6835.73,,충청북도 청주시 청원구 오창읍 창리 64-4,충청북도 청주시 청원구 오창읍 공항로 1033-23,28109,주식회사 아산마트오창점,2024-04-04 09:05:06,U,2024-04-06 02:40:00,대형마트,240180.478406721,359898.219890676,대규모점포,,36.739556,127.450668
287,대규모점포,08_25_01_P,3020000,2020302015007500001,2020-08-13,,1,영업/정상,1,정상영업,,,,,02-2689-0035,8500.52,,서울특별시 용산구 한강로3가 2-8,"서울특별시 용산구 청파로 100, 12동 2층 (한강로3가)",04372,(주)서부티엔디,2020-08-13 09:12:59,I,2020-08-15 00:23:13,전문점,196605.511573689,447841.270074498,대규모점포,,37.532812,126.962384
288,대규모점포,08_25_01_P,3720000,2020372017807500001,2020-08-12,,1,영업/정상,1,정상영업,,,,,02-2015-3826,3886.91,,울산광역시 북구 진장동 285-1 KCC진장사옥,"울산광역시 북구 진장유통로 28-17, KCC진장사옥 (진장동)",44248,주식회사 케이씨씨글라스 홈씨씨울산점,2024-05-16 17:13:12,U,2024-05-18 02:40:00,복합쇼핑몰,413816.065283908,233057.855813064,대규모점포,,35.574247,129.359382
289,대규모점포,08_25_01_P,4641000,2020464047907500001,2020-08-05,,1,영업/정상,1,정상영업,,,,,02-2181-9400,15882.9,,전북특별자치도 전주시 덕진구 장동 1111 전북혁신도시 더 M city 센텀,"전북특별자치도 전주시 덕진구 기지로 77 (장동, 전북혁신도시 더 M city 센텀)",54865,전북혁신도시 대방디엠시티,2021-03-26 17:32:34,I,2024-01-19 01:16:45,그 밖의 대규모점포,205360.64276712,259875.953149564,대규모점포,,35.839005,127.060137
292,대규모점포,08_25_01_P,3160000,2020316015907500001,2020-06-26,,1,영업/정상,1,정상영업,,,,,02-323-0456,49220.79,,서울특별시 구로구 구로동 573,서울특별시 구로구 구로중앙로 152 (구로동),08292,이랜드리테일 NC구로점,2024-12-13 10:31:50,U,2024-12-15 02:40:00,복합쇼핑몰,189570.360930049,444336.051330144,대규모점포,,37.501177,126.882839
293,대규모점포,08_25_01_P,4010000,2020401031707500001,2020-06-17,,1,영업/정상,1,정상영업,,,,,,27134.94,,경기도 시흥시 능곡동 235-1 시흥 플랑드르,"경기도 시흥시 장현능곡로 155, 시흥 플랑드르 (능곡동)",14999,시흥플랑드르,2023-03-03 14:22:15,U,2023-05-26 08:48:36,그 밖의 대규모점포,182864.742763587,429902.071373508,대규모점포,,37.371025,126.807342
294,대규모점포,08_25_01_P,4040000,2020404022807500001,2020-06-10,,1,영업/정상,1,정상영업,,,,,02-380-5234,14148.62,,경기도 하남시 덕풍동 736번지 하남풍산지구 이마트,"경기도 하남시 덕풍서로 70, 하남풍산지구 이마트 (덕풍동)",12927,이마트 하남점,2020-06-10 15:16:17,I,2020-06-12 00:23:18,대형마트,218076.91973786,450073.163619109,대규모점포,,37.552751,127.205361
295,대규모점포,08_25_01_P,4020000,2020402010807500001,2020-06-05,,1,영업/정상,1,정상영업,,,,,031-5175-1206,25366.05,,경기도 군포시 금정동 916 힐스테이트 금정역,"경기도 군포시 엘에스로 143(금정동, 힐스테이트 금정역)",15809,힐스테이트 금정역 상업시설,2022-07-06 09:34:14,U,2022-07-08 02:40:00,구분없음,195045.840185728,430029.875659413,대규모점포,,37.372323,126.944859
296,대규모점포,08_25_01_P,3140000,2020314016707500001,2020-05-26,,1,영업/정상,1,정상영업,,,,,02-2643-3209,2734.89,,서울특별시 양천구 목동 966번지 목동에버하임,"서울특별시 양천구 목동중앙북로 68 (목동, 목동에버하임)",07948,목동에버하임,2020-06-17 13:01:15,U,2020-06-19 02:40:00,그 밖의 대규모점포,188502.886822432,449377.63880433,대규모점포,,37.546588,126.870688
297,대규모점포,08_25_01_P,5530000,2020553038907500001,2020-05-08,,1,영업/정상,1,정상영업,,,,,031-320-4298,76978.9,,경기도 화성시 오산동 967-157 동탄역 롯데캐슬,"경기도 화성시 동탄역로 160, 동탄역 롯데캐슬 (오산동)",18478,롯데백화점 동탄점,2025-08-18 10:33:46,U,2025-08-20 02:40:00,백화점,208569.642431686,410949.263462028,대규모점포,,37.200375,127.09732
298,대규모점포,08_25_01_P,5310000,2005531001307500001,2020-04-29,,1,영업/정상,1,정상영업,,,,,055 749 1052,11028.0,660-020,경상남도 진주시 인사동 3번지,경상남도 진주시 진양호로 477 (인사동),660-020,(주)이마트 진주점,2024-04-24 18:07:33,U,2024-04-26 02:40:00,대형마트,298054.527527208,188573.551987221,대규모점포,,35.19159,128.077417
299,대규모점포,08_25_01_P,5330000,2020533022707500002,2020-04-23,,1,영업/정상,1,정상영업,,,,,055 640 1234,0.0,,경상남도 통영시 광도면 죽림리 1566번지 2호 이마트통영점,"경상남도 통영시 광도면 죽림4로 9, 이마트통영점",53013,(주)이마트 통영점,2020-04-26 19:00:31,I,2020-04-28 00:23:34,쇼핑센터,329522.977138462,155160.704055243,대규모점포,,34.886947,128.417643
303,대규모점포,08_25_01_P,3520000,2020352017507500001,2020-02-26,,1,영업/정상,1,정상영업,,,,,032-810-2525,0.0,,인천광역시 연수구 청학동 502번지 4호 롯데마트 연수점,"인천광역시 연수구 청능대로 87, 롯데마트 연수점 (청학동)",21926,롯데쇼핑(주) 롯데마트 연수점,2024-03-12 16:55:31,U,2024-03-14 02:40:00,대형마트,171173.885129435,434824.628551534,대규모점포,,37.415087,126.675167
304,대규모점포,08_25_01_P,3990000,2020399042107500001,2020-02-21,,1,영업/정상,1,정상영업,,,,,02-3416-5861,53672.64,,경기도 남양주시 다산동 6141번지 다산진건 자족시설용지 1BL 판매시설,"경기도 남양주시 다산순환로 50, 다산진건 자족시설용지 1BL 판매시설 (다산동)",12248,현대프리미엄아울렛 SPACE1,2024-05-24 18:07:20,U,2024-05-26 02:40:00,쇼핑센터,213414.26557821,457095.530042213,대규모점포,,37.616101,127.152723
306,대규모점포,08_25_01_P,4390000,2020439021407500001,2020-02-14,,1,영업/정상,1,정상영업,,,,,,6668.0,,충청북도 충주시 대소원면 완오리 1198 홈마트,"충청북도 충주시 대소원면 기업도시로 26, 홈마트",27465,홈마트,2022-12-01 11:36:40,U,2022-12-03 02:40:00,대형마트,274265.635641832,389179.707204565,대규모점포,,37.00133,127.835129
307,대규모점포,08_25_01_P,5330000,2003533001507500001,2020-02-11,,1,영업/정상,1,정상영업,,,,,055 640 2500,8638.05,,경상남도 통영시 무전동 1069호,경상남도 통영시 무전대로 65 (무전동),,롯데쇼핑(주)롯데마트통영점,2025-05-16 18:01:26,U,2025-05-18 02:40:00,그 밖의 대규모점포,330528.677424652,152263.189898881,대규모점포,,34.860708,128.42819
309,대규모점포,08_25_01_P,3670000,2020367014507500002,2020-01-28,,1,영업/정상,1,정상영업,,,,,042-332-0000,50715.2,,대전광역시 유성구 봉명동 549-11 골든하이아울렛,"대전광역시 유성구 계룡로 119, 골든하이아울렛 (봉명동)",34187,프리미엄아울렛 골든하이,2022-11-16 11:34:22,U,2022-11-18 02:40:00,복합쇼핑몰,230807.123581372,317037.976305078,대규모점포,,36.35368,127.344015
310,대규모점포,08_25_01_P,3670000,2020367014507500001,2020-01-22,,1,영업/정상,1,정상영업,,,,,02-3416-5853,44125.23,,대전광역시 유성구 용산동 579번지,,,현대프리미엄아울렛 대전점,2024-03-18 09:51:53,U,2024-03-20 02:40:00,쇼핑센터,235682.718231801,324850.017801251,대규모점포,,36.423909,127.39869
311,대규모점포,08_25_01_P,3670000,2020367014507500003,2020-01-22,,1,영업/정상,1,정상영업,,,,,042-332-2233,44125.23,,대전광역시 유성구 용산동 579번지 현대프리미엄아울렛 대전점,"대전광역시 유성구 테크노중앙로 123, 현대프리미엄아울렛 대전점 (용산동)",34030,현대프리미엄아울렛 대전점,2023-12-27 16:25:17,U,2023-12-29 02:40:00,쇼핑센터,235682.718231801,324850.017801251,대규모점포,,36.423909,127.39869
312,대규모점포,08_25_01_P,4711000,2020471020907500001,2020-01-10,,1,영업/정상,1,정상영업,,,,,031-8060-0700,21138.68,,전북특별자치도 김제시 용지면 부교리 57번지 22호,전북특별자치도 김제시 용지면 콩쥐팥쥐로 855,54334,모다아울렛,2024-05-27 18:36:36,U,2024-05-29 02:40:00,쇼핑센터,199319.139170008,257448.484296989,대규모점포,,35.817141,126.99327
313,대규모점포,08_25_01_P,3180000,2020318023907500001,2020-01-02,,1,영업/정상,1,정상영업,,,,,02-3277-0021,84573.34,,서울특별시 영등포구 여의도동 22번지,서울특별시 영등포구 여의대로 108 (여의도동),07335,THE HYUNDAI SEOUL,2024-06-25 11:11:10,U,2024-06-27 02:40:00,백화점,193592.000380036,447092.629432527,대규모점포,,37.52605,126.928296
315,대규모점포,08_25_01_P,4030000,2019403018707500001,2019-12-04,,1,영업/정상,1,정상영업,,,,,031-8064-2732,49011.79,,경기도 의왕시 학의동 1039 롯데프리미엄아울렛 타임빌라스,경기도 의왕시 바라산로 1 (학의동),16016,롯데쇼핑(주) 프리미엄아울렛 의왕점,2025-04-28 14:39:30,U,2025-04-30 02:40:00,쇼핑센터,200775.6096513,430435.021970577,대규모점포,,37.375986,127.009547
316,대규모점포,08_25_01_P,4050000,2019405048407500002,2019-11-29,,1,영업/정상,1,정상영업,,,,,02-6263-7500,47573.0,,경기도 용인시 기흥구 고매동 271번지,경기도 용인시 기흥구 신고매로 59 (고매동),17086,리빙파워센터,2020-11-25 16:20:59,U,2020-11-27 02:40:00,전문점,210124.077461246,413542.129882444,대규모점포,,37.223723,127.114864
318,대규모점포,08_25_01_P,3740000,2019374039007500002,2019-11-14,,1,영업/정상,1,정상영업,,,,,062-510-2310,38325.0,,경기도 수원시 영통구 원천동 589번지 광교중흥에스클래스,"경기도 수원시 영통구 광교호수공원로 277 (원천동, 광교중흥에스클래스)",16517,중흥S클래스,2019-11-14 13:40:38,I,2020-08-05 00:23:26,그 밖의 대규모점포,205026.079641798,420062.878231009,대규모점포,,37.282518,127.057466
319,대규모점포,08_25_01_P,5530000,2019553038907500001,2019-11-11,,1,영업/정상,1,정상영업,,,,,1588-9707,24653.29,,경기도 화성시 송동 694 동탄린스트라우스더레이크,"경기도 화성시 동탄대로 181 (송동, 동탄린스트라우스더레이크)",18497,레이크꼬모,2023-12-14 10:36:18,U,2023-12-16 02:40:00,그 밖의 대규모점포,209253.387443815,407725.114639407,대규모점포,,37.171318,127.104982
320,대규모점포,08_25_01_P,5350000,2019535030107500001,2019-10-31,,1,영업/정상,1,정상영업,,,,,055-323-0085,5713.83,,경상남도 김해시 삼방동 175번지 홈플러스,경상남도 김해시 활천로267번길 31 (삼방동),50818,일등마트,2023-12-20 16:26:12,U,2023-12-23 02:40:00,그 밖의 대규모점포,373601.142514243,195717.233837676,대규모점포,,35.245738,128.908081
322,대규모점포,08_25_01_P,3010000,2019301016607500001,2019-10-17,,1,영업/정상,1,정상영업,,,,,02-2264-8511,3778.41,,서울특별시 중구 산림동 207번지 1호 세운청계상가,"서울특별시 중구 청계천로 160, 세운청계상가 (산림동)",04545,청계상가,2019-10-17 16:09:13,I,2019-10-19 00:22:53,그 밖의 대규모점포,199521.200809167,451751.424132583,대규모점포,,37.568048,126.995368
325,대규모점포,08_25_01_P,5710000,2019571018307500002,2019-09-26,,1,영업/정상,1,정상영업,,,,,043-241-0601,15841.0,,충청북도 청주시 청원구 내덕동 201번지 1호,충청북도 청주시 청원구 상당로 314 (내덕동),28501,원더아리아,2024-01-03 10:10:22,U,2024-01-05 02:40:00,쇼핑센터,243762.803672115,350640.306254882,대규모점포,,36.655975,127.490247
326,대규모점포,08_25_01_P,3410000,2019341013007500001,2019-09-25,,1,영업/정상,1,정상영업,,,,,053-766-1860,13179.89,,대구광역시 중구 공평동 58번지 6호,대구광역시 중구 동성로6길 61 (공평동),41938,태왕스파크,2020-07-09 10:07:21,U,2020-07-11 02:40:00,그 밖의 대규모점포,344317.219568243,264349.485185736,대규모점포,,35.868718,128.598697
327,대규모점포,08_25_01_P,3000000,2019300020207500001,2019-09-17,,1,영업/정상,1,정상영업,,,,,02-430-4200,25198.02,,서울특별시 종로구 낙원동 288번지 낙원상가,"서울특별시 종로구 삼일대로 428, 낙원상가 506호 (낙원동)",03140,낙원상가,2019-09-25 15:06:02,U,2019-09-27 02:40:00,그 밖의 대규모점포,198838.912965902,452214.210961577,대규모점포,,37.572217,126.987645
328,대규모점포,08_25_01_P,3000000,2019300020207500002,2019-09-17,,1,영업/정상,1,정상영업,,,,,02-743-6133,25198.02,,서울특별시 종로구 낙원동 288번지 낙원상가,"서울특별시 종로구 삼일대로 428, 낙원상가 (낙원동)",03140,낙원상가,2019-09-25 15:05:06,I,2019-09-27 02:22:37,그 밖의 대규모점포,198838.912965902,452214.210961577,대규모점포,,37.572217,126.987645
330,대규모점포,08_25_01_P,3830000,2019383026707500001,2019-08-14,,1,영업/정상,1,정상영업,,,,,031-5177-6000,23631.23,,경기도 안양시 만안구 안양동 88번지 1호,경기도 안양시 만안구 만안로 232 (안양동),13992,(주)엔터식스패션쇼핑몰 안양점,2021-12-10 10:41:41,U,2021-12-14 02:40:00,백화점,,,대규모점포,,,
331,대규모점포,08_25_01_P,4050000,2019405048407500001,2019-08-12,,1,영업/정상,1,정상영업,,,,,02-310-8700,24775.89,,경기도 용인시 기흥구 고매동 산 41-7 IKEA Korea 기흥점,"경기도 용인시 기흥구 신고매로 62, IKEA Korea 기흥점 (고매동)",17086,이케아 기흥점,2024-02-13 15:21:50,U,2024-02-15 02:40:00,전문점,210247.571320786,413380.673935188,대규모점포,,37.222266,127.116253
332,대규모점포,08_25_01_P,4010000,2019401031707500001,2019-08-06,,1,영업/정상,1,정상영업,,,,,02-6177-0315,47820.69,,경기도 시흥시 정왕동 1771번지 31호,"경기도 시흥시 서울대학로264번길 7, 시흥배곧 아브뉴프랑 센트럴 (정왕동)",15011,시흥배곧 아브뉴프랑 센트럴,2021-12-30 09:11:48,U,2022-01-01 02:40:00,그 밖의 대규모점포,175664.38434522,429710.991159924,대규모점포,,37.369142,126.72606
333,대규모점포,08_25_01_P,4390000,2019439021407500001,2019-07-31,,1,영업/정상,1,정상영업,,,,,043-724-0002,13570.08,,충청북도 충주시 달천동 786번지 5호,충청북도 충주시 중원대로 3683 (달천동),27476,모다아울렛,2024-05-03 15:05:44,U,2024-05-05 02:40:00,전문점,279950.011010575,384819.062612119,대규모점포,,36.961576,127.898522
334,대규모점포,08_25_01_P,3820000,2019382027107500001,2019-07-29,,1,영업/정상,1,정상영업,,,,,,8625.06,,경기도 의정부시 민락동 803 민락2지구 제일풍경채 센텀-애비뉴모나코,"경기도 의정부시 오목로 196, 민락2지구 제일풍경채 센텀-애비뉴모나코 (민락동)",11813,애비뉴모나코,2025-05-08 14:36:44,U,2025-05-10 02:40:00,그 밖의 대규모점포,208627.776413231,471251.468626339,대규모점포,,37.743699,127.098676
338,대규모점포,08_25_01_P,3740000,2019374039007500001,2019-06-21,,1,영업/정상,1,정상영업,,,,,02-410-7138,66350.0,,경기도 수원시 영통구 하동 1017-2 갤러리아 광교,"경기도 수원시 영통구 광교중앙로 124, 갤러리아 광교 (하동)",16514,한화갤러리아(주) 광교점,2023-12-11 15:38:40,U,2023-12-13 02:40:00,백화점,205023.582888351,420361.248170516,대규모점포,,37.285206,127.05744
339,대규모점포,08_25_01_P,3070000,2019307021607500003,2019-06-13,,1,영업/정상,1,정상영업,,,,,02-912-9110,5022.21,,"서울특별시 성북구 길음동 535-8,535-26,540-2,540-7",,,길음시장,2019-06-13 08:58:32,I,2019-06-15 02:21:11,그 밖의 대규모점포,,,대규모점포,,,
340,대규모점포,08_25_01_P,3940000,2019394038807500003,2019-06-04,,1,영업/정상,1,정상영업,,,,,02-381-8036,7989.5,,경기도 고양시 덕양구 삼송동 291번지,경기도 고양시 덕양구 동송로 70 (삼송동),10591,힐스몰,2022-04-26 10:56:02,U,2022-04-28 02:40:00,그 밖의 대규모점포,190815.458049782,461119.342314115,대규모점포,,37.652405,126.896708
342,대규모점포,08_25_01_P,3070000,2019307021607500002,2019-05-29,,1,영업/정상,1,정상영업,,,,,02-912-9110,4612.41,,"서울특별시 성북구 길음동 535번지8호, 535번지26호, 540번지2호",,,길음시장,2019-05-29 17:30:00,I,2019-05-31 02:20:59,그 밖의 대규모점포,,,대규모점포,,,
343,대규모점포,08_25_01_P,3070000,2019307021607500001,2019-05-24,,1,영업/정상,1,정상영업,,,,,02-926-6405,0.0,,서울특별시 성북구 돈암동 609번지 1호 스카이프라자상가,"서울특별시 성북구 성북로4길 52 (돈암동, 한신한진아파트)",02831,동소문스카이상가,2019-05-24 17:01:59,I,2019-05-26 02:20:55,그 밖의 대규모점포,200841.726990037,454721.505180141,대규모점포,,37.594808,127.010319
344,대규모점포,08_25_01_P,3860000,2019386053307500001,2019-05-02,,1,영업/정상,1,정상영업,,,,,02-380-9843,47606.26,,경기도 부천시 소사구 옥길동 768번지,,,스타필드시티 부천점,2024-04-30 16:42:25,U,2024-05-02 02:40:00,복합쇼핑몰,183469.36769705,439944.223220165,대규모점포,,37.461517,126.813942
346,대규모점포,08_25_01_P,3400000,2019340010907500001,2019-04-25,,1,영업/정상,1,정상영업,,,,,02-310-8700,22654.44,,부산광역시 기장군 기장읍 당사리 52번지 2호 이케아 동부산점,"부산광역시 기장군 기장읍 동부산관광3로 17, 이케아 동부산점",46084,이케아 동부산점,2024-02-13 15:50:12,U,2024-02-15 02:40:00,전문점,401263.933189653,190196.173106958,대규모점포,,35.190843,129.210464
348,대규모점포,08_25_01_P,3170000,2019317019007500001,2019-04-10,,1,영업/정상,1,정상영업,,,,,02-809-9957,4288.0,,서울특별시 금천구 독산동 1156번지 금천롯데캐슬골드파크4차,"서울특별시 금천구 시흥대로 315, 금천롯데캐슬골드파크4차 (독산동)",08608,롯데캐슬 골드파크 4차 마르쉐도르 960,2021-12-22 17:07:46,U,2021-12-24 02:40:00,그 밖의 대규모점포,190799.832998673,439885.941303087,대규모점포,,37.461094,126.896799
349,대규모점포,08_25_01_P,3090000,2019309015207500001,2019-03-28,,1,영업/정상,1,정상영업,,,,,6052-7704,3338.57,,서울특별시 도봉구 쌍문동 711번지 금강아미움파크타운,"서울특별시 도봉구 방학로5길 33, 금강아미움파크타운 (쌍문동, 금강아미움파크타운)",01391,금강아미움쇼핑센터,2020-02-11 12:47:59,U,2020-02-13 02:40:00,그 밖의 대규모점포,203296.164641727,462113.860476609,대규모점포,,37.661406,127.038143
350,대규모점포,08_25_01_P,4010000,2016401023907500002,2019-03-18,,1,영업/정상,1,정상영업,,,,,02-2185-1234,46903.89,,,경기도 시흥시 서해안로 699 (정왕동),15010,신세계프리미엄아울렛 시흥점,2025-05-15 11:11:44,U,2025-05-17 02:40:00,복합쇼핑몰,176568.020503007,430857.327073249,대규모점포,,37.379494,126.736225
351,대규모점포,08_25_01_P,5380000,2019538024907500001,2019-03-12,,1,영업/정상,1,정상영업,,,,,,53212.23,,경상남도 양산시 물금읍 가촌리 1292번지 라피에스타,"경상남도 양산시 물금읍 증산역로 177, 라피에스타",50653,라피에스타 양산,2019-03-18 16:22:48,U,2019-03-20 02:40:00,그 밖의 대규모점포,382680.011475879,203015.651868728,대규모점포,,35.309868,129.009396
352,대규모점포,08_25_01_P,4090000,2019409035407500001,2019-03-05,,1,영업/정상,1,정상영업,,,,,031-984-2811,7183.43,,경기도 김포시 걸포동 1440번지,"경기도 김포시 홍도평로 20, 김포농협 농수축산물판매장 (걸포동)",10096,김포농협 농수축산물판매장,2019-05-08 17:46:26,U,2019-05-10 02:40:00,대형마트,174592.445872281,458856.710374198,대규모점포,,37.631713,126.712951
354,대규모점포,08_25_01_P,3310000,2019331010007500001,2019-01-17,,1,영업/정상,1,정상영업,,,,,051-647-9620,24081.39,,부산광역시 남구 문현동 1227번지 2호,부산광역시 남구 전포대로 133 (문현동),48400,IFC부산 오슬로파크,2024-12-26 16:41:49,U,2024-12-28 02:40:00,쇼핑센터,388150.394268792,185188.729710212,대규모점포,,35.148278,129.065437
357,대규모점포,08_25_01_P,3720000,2018372016107500001,2018-11-22,,1,영업/정상,1,정상영업,,,,,052-980-1000,8504.75,,울산광역시 북구 진장동 120번지 9호 CGV,"울산광역시 북구 진장유통로 51-10, CGV (진장동)",44249,진장CGV엔터플렉스,2019-08-16 11:48:59,U,2019-08-18 02:40:00,복합쇼핑몰,,,대규모점포,,,
361,대규모점포,08_25_01_P,3260000,2018326009707500001,2018-09-11,,1,영업/정상,1,정상영업,,,,,051-241-3006,5025.59,,부산광역시 서구 토성동1가 25번지 1호 경동 리인,"부산광역시 서구 보수대로 27 (토성동1가, 경동 리인)",49247,경동타워 쇼핑,2025-04-30 15:14:00,U,2025-05-02 02:40:00,그 밖의 대규모점포,384479.160908971,179674.849130869,대규모점포,,35.099288,129.023946
362,대규모점포,08_25_01_P,3360000,2018336014507500001,2018-08-30,,1,영업/정상,1,정상영업,,,,,051-990-0100,30550.0,,부산광역시 강서구 명지동 3438번지 스타필드 시티 명지,"부산광역시 강서구 명지국제6로 168, 스타필드 시티 명지점 (명지동)",46726,스타필드 시티 명지점,2024-04-17 17:36:26,U,2024-04-19 02:40:00,쇼핑센터,374851.695086603,178805.753601576,대규모점포,,35.093174,128.918234
363,대규모점포,08_25_01_P,3130000,2018313020107500001,2018-08-14,,1,영업/정상,1,정상영업,,,,,02-2179-5021,9747.1,,서울특별시 마포구 동교동 190번지 1호,서울특별시 마포구 양화로 188 (동교동),04051,AK PLAZA 홍대,2023-04-03 14:56:00,U,2023-04-05 02:40:00,쇼핑센터,193285.549735897,450808.571641119,대규모점포,,37.559528,126.924795
364,대규모점포,08_25_01_P,6520000,2018652014107500001,2018-08-10,,1,영업/정상,1,정상영업,,,,,797-1053,7537.19,,제주특별자치도 서귀포시 법환동 841번지 2호 이마트서귀포점,"제주특별자치도 서귀포시 일주동로 9209, 이마트서귀포점 (법환동)",63572,(주)이마트 서귀포점,2018-09-27 14:39:50,I,2018-08-31 23:59:59,대형마트,154149.891505173,-27413.998305054,대규모점포,,33.248281,126.508823
367,대규모점포,08_25_01_P,5690000,2018569020007500001,2018-07-06,,1,영업/정상,1,정상영업,,,,,02-3404-4941,13122.66,,세종특별자치시 어진동 539번지,세종특별자치시 한누리대로 411 (어진동),30116,KT&G Mall 세종A관,2019-02-12 18:04:31,U,2019-02-14 02:40:00,그 밖의 대규모점포,223120.094210618,333376.484678264,대규모점포,,36.501129,127.258862
368,대규모점포,08_25_01_P,3560000,2018356013707500001,2018-06-22,,1,영업/정상,1,정상영업,,,,,032-5674-8235,38642.78,,인천광역시 서구 경서동 953번지 7호 청라 스퀘어7,"인천광역시 서구 청라루비로 76, 청라 스퀘어7 (경서동)",22761,청라스퀘어세븐,2018-06-27 16:43:32,I,2018-08-31 23:59:59,쇼핑센터,168257.170229336,447843.844166864,대규모점포,,37.532293,126.641659
369,대규모점포,08_25_01_P,4050000,2018405042207500003,2018-06-18,,1,영업/정상,1,정상영업,,,,,031-5186-6508,29521.0,,경기도 용인시 기흥구 구갈동 234-3,"경기도 용인시 기흥구 기흥역로 63(구갈동, 힐스테이트 기흥)",17065,애경자산관리(주)AK기흥,2021-12-08 18:11:43,U,2021-12-10 02:40:00,쇼핑센터,210353.782614485,419192.22676332,대규모점포,,37.274629,127.11753
370,대규모점포,08_25_01_P,4050000,2018405042207500002,2018-06-15,,1,영업/정상,1,정상영업,,,,,031-8036-3073,49115.0,,경기도 용인시 기흥구 고매동 280번지,경기도 용인시 기흥구 신고매로 124 (고매동),17087,롯데프리미엄아울렛 기흥점,2025-05-12 09:35:28,U,2025-05-14 02:40:00,복합쇼핑몰,210547.479033545,413684.298426578,대규모점포,,37.224999,127.119637
372,대규모점포,08_25_01_P,3660000,2018366013407500001,2018-05-30,,1,영업/정상,1,정상영업,,,,,0425361500,11432.33,,대전광역시 서구 둔산동 1279번지,대전광역시 서구 대덕대로 216 (둔산동),35233,(주)프러스퍼러티,2024-05-16 20:42:52,U,2024-05-18 02:40:00,쇼핑센터,233985.791157191,316847.161670171,대규모점포,,36.351853,127.379419
374,대규모점포,08_25_01_P,4090000,2018409032207500002,2018-05-23,,1,영업/정상,1,정상영업,,,,,031-8048-2621,11812.8,,경기도 김포시 고촌읍 전호리 668번지,경기도 김포시 고촌읍 아라육로152번길 97,10135,현대프리미엄아울렛 김포점 별관,2024-05-08 14:38:59,U,2024-05-10 02:40:00,쇼핑센터,180850.069343035,455088.56165281,대규모점포,,37.597915,126.78394
375,대규모점포,08_25_01_P,4191000,2018419024107500001,2018-05-21,,1,영업/정상,1,정상영업,,,,,02-549-6693,3300.29,,강원특별자치도 원주시 무실동 630번지 3호 외 1,강원특별자치도 원주시 북원로 2054 (무실동),26394,원주 무실동 판매시설(CROSS AVENUE WONJU),2021-04-30 13:34:28,I,2023-06-13 00:00:00,전문점,281918.041268589,425757.187016122,대규모점포,,37.330234,127.925092
377,대규모점포,08_25_01_P,3170000,2018317019007500001,2018-04-30,,1,영업/정상,1,정상영업,,,,,0221458000,31618.0,,서울특별시 금천구 독산동 1155 금천롯데캐슬골드파크3차,"서울특별시 금천구 시흥대로 291(독산동, 금천롯데캐슬골드파크3차)",08608,롯데쇼핑(주) 금천 독산점,2025-05-14 11:23:44,U,2025-05-16 02:40:00,쇼핑센터,190838.324818618,439761.362000391,대규모점포,,37.459972,126.897236
379,대규모점포,08_25_01_P,3940000,2018394029807500001,2018-04-10,,1,영업/정상,1,정상영업,,,,,031-782-3752,11120.34,,경기도 고양시 덕양구 동산동 369번지,경기도 고양시 덕양구 동송로 33 (동산동),10595,e-편한세상 시티 삼송(World Avenue),2019-01-29 13:51:14,U,2019-01-31 02:40:00,그 밖의 대규모점포,190793.745581355,460809.3267951,대규모점포,,37.649611,126.896466
380,대규모점포,08_25_01_P,4610000,2018461011607500001,2018-04-05,,1,영업/정상,1,정상영업,,,,,,3570.43,,충청남도 예산군 오가면 월곡리 142번지 18호,충청남도 예산군 오가면 충서로 381,32426,예산홍성패션타운,2018-04-06 17:15:26,I,2018-08-31 23:59:59,전문점,180276.580660657,352254.247397341,대규모점포,,36.671316,126.780162
381,대규모점포,08_25_01_P,3400000,2018340010907500001,2018-03-26,,1,영업/정상,1,정상영업,,,,,051-710-0056,35299.92,,부산광역시 기장군 정관읍 매학리 717번지 6호,부산광역시 기장군 정관읍 정관중앙로 45,46015,탑스퀘어,2020-11-18 17:25:58,U,2020-11-20 02:40:00,그 밖의 대규모점포,398024.244821605,204621.655738547,대규모점포,,35.321415,129.178391
382,대규모점포,08_25_01_P,4170000,2018417013407500001,2018-03-07,,1,영업/정상,1,정상영업,,,,,02-2145-8000,6085.75,476-801,경기도 양평군 양평읍 공흥리 468번지 33호,경기도 양평군 남북로 76-0,476-801,롯데쇼핑(주)롯데마트 경기양평점,2025-05-20 18:01:36,U,2025-05-22 02:40:00,그 밖의 대규모점포,244381.267486222,443145.649076961,대규모점포,,37.489448,127.502618
383,대규모점포,08_25_01_P,3740000,2018374033507500002,2018-03-07,,1,영업/정상,1,정상영업,,,,,02-539-1781,14809.24,,경기도 수원시 영통구 원천동 582번지 9호,경기도 수원시 영통구 광교중앙로25번길 74 (원천동),16500,엘리웨이 광교,2019-11-18 16:33:56,I,2020-08-05 00:23:26,그 밖의 대규모점포,204437.000117278,419359.853305028,대규모점포,,37.276186,127.050819
384,대규모점포,08_25_01_P,3740000,2018374033507500001,2018-02-26,,1,영업/정상,1,정상영업,,,,,02-2189-6000,13933.92,,경기도 수원시 영통구 이의동 1336번지 1호,경기도 수원시 영통구 광교중앙로 145 (이의동),16508,광교 엘포트 몰,2018-05-10 17:07:14,I,2020-08-05 00:23:26,그 밖의 대규모점포,205049.975071918,420565.686783422,대규모점포,,37.287048,127.057739
385,대규모점포,08_25_01_P,4050000,2018405042207500001,2018-02-22,,1,영업/정상,1,정상영업,,,,,031-204-2006,10202.07,,경기도 용인시 기흥구 영덕동 517번지 1호 영통프리미엄아울렛,"경기도 용인시 기흥구 중부대로 64, 영통프리미엄아울렛 (영덕동)",16956,수원프리미엄아울렛,2025-03-27 09:27:22,U,2025-03-29 02:40:00,전문점,206698.825871309,418302.265469101,대규모점포,,37.266644,127.076313
387,대규모점포,08_25_01_P,4090000,2017409032207500001,2017-12-21,,1,영업/정상,1,정상영업,,,,,031-8049-2500,11900.82,,,경기도 김포시 김포한강2로 41-0 (장기동),415-060,롯데쇼핑(주) 롯데마트 김포한강점,2025-05-15 16:05:06,U,2025-05-17 02:40:00,대형마트,171471.604963288,459839.83969575,대규모점포,,37.640479,126.677557
388,대규모점포,08_25_01_P,5530000,2017553037107500001,2017-12-13,,1,영업/정상,1,정상영업,,,,,031-378-5331,34780.0,,경기도 화성시 오산동 1019,경기도 화성시 동탄대로 537 (오산동),18478,라스플로레스,2023-11-21 16:07:50,U,2023-11-23 02:40:00,복합쇼핑몰,208624.936086903,411151.948385108,대규모점포,,37.202201,127.097945
389,대규모점포,08_25_01_P,3170000,2017317017407500001,2017-12-05,,1,영업/정상,1,정상영업,,,,,02-802-8835,11464.0,,서울특별시 금천구 독산동 1150번지 금천롯데캐슬골드파크2차,"서울특별시 금천구 벚꽃로 30 (독산동, 금천롯데캐슬골드파크2차)",08608,롯데캐슬 골드파크 2차 마르쉐도르,2021-12-22 17:11:19,U,2021-12-24 02:40:00,그 밖의 대규모점포,190567.418315661,439569.401459017,대규모점포,,37.45824,126.894176
392,대규모점포,08_25_01_P,3610000,2017361015607500001,2017-10-30,,1,영업/정상,1,정상영업,,,,,062-650-7400,6602.0,,,"광주광역시 남구 봉선로 1 (주월동, 남구청)",61687,메가아울렛,2019-11-04 17:05:32,U,2019-11-06 02:40:00,쇼핑센터,191036.225621204,181532.775962088,대규모점포,,35.132867,126.902458
393,대규모점포,08_25_01_P,4040000,2017404019907500001,2017-10-25,,1,영업/정상,1,정상영업,,,,,02-2630-2648,14625.31,,경기도 하남시 풍산동 609 코스트코 홀세일 하남점,"경기도 하남시 미사강변중앙로 40, 코스트코 홀세일 하남점 (풍산동)",12938,코스트코 홀세일 하남점,2024-02-26 11:14:50,U,2024-02-28 02:40:00,대형마트,217063.768457455,449847.097381194,대규모점포,,37.550734,127.193891
394,대규모점포,08_25_01_P,3980000,2017398010807500001,2017-09-26,,1,영업/정상,1,정상영업,,,,,0315149000,21346.37,,경기도 구리시 갈매동 599번지,"경기도 구리시 경춘북로 230 (갈매동, 구리갈매지구판매시설)",11901,모다아울렛,2021-04-30 15:05:48,U,2021-05-02 02:40:00,전문점,210176.709339399,458999.953981333,대규모점포,,37.633301,127.11608
395,대규모점포,08_25_01_P,4490000,2017449034407500001,2017-09-20,,1,영업/정상,1,정상영업,,,,,0415587809,21031.94,,,충청남도 천안시 서북구 한들1로 196 (백석동),31087,마치에비뉴,2021-02-21 17:40:51,U,2021-02-23 02:40:00,그 밖의 대규모점포,210564.963663027,370723.910022674,대규모점포,,36.837896,127.119235
398,대규모점포,08_25_01_P,4020000,2017402010807500001,2017-08-08,,1,영업/정상,1,정상영업,,,,,031-361-3456,11524.0,,경기도 군포시 부곡동 1227번지 1호,경기도 군포시 삼성로 74 (부곡동),15874,트레이더스 홀세일 클럽 군포점,2024-04-17 17:58:23,U,2024-04-19 02:40:00,대형마트,194143.227537911,426457.360631877,대규모점포,,37.340128,126.934697
406,대규모점포,08_25_01_P,3370000,2017337006907500001,2017-06-01,,1,영업/정상,1,정상영업,,,,,051-968-5652,17145.55,,부산광역시 연제구 연산동 2374,부산광역시 연제구 좌수영로 241 (연산동),47569,트레이더스 홀세일 클럽 연산점,2024-04-17 10:00:18,U,2024-04-19 02:40:00,대형마트,392308.475150846,189367.663906888,대규모점포,,35.185134,129.11201
407,대규모점포,08_25_01_P,4570000,2012457008307500001,2017-05-30,,1,영업/정상,1,정상영업,,,,,02-2118-5825,20630.87,323-812,충청남도 부여군 규암면 합정리 172번지,충청남도 부여군 백제문로 387-0,323-812,롯데 아울렛 부여점,2017-06-02 17:38:47,I,2018-08-31 23:59:59,쇼핑센터,,,대규모점포,,,
411,대규모점포,08_25_01_P,3410000,2017341012007500001,2017-04-26,,1,영업/정상,1,정상영업,,,,2017-09-01,051-330-2583,7643.0,,대구광역시 중구 남산동 3006 반월당효성해링턴플레이스,"대구광역시 중구 중앙대로66길 20 (남산동, 반월당효성해링턴플레이스)",41961,탑마트 대구점,2025-04-25 10:45:17,U,2025-04-27 02:40:00,대형마트,343902.080116286,263530.80993882,대규모점포,,35.861403,128.593954
412,대규모점포,08_25_01_P,3180000,2017318016307500001,2017-04-25,,1,영업/정상,1,정상영업,,,,,21458178,18016.52,,,서울특별시 영등포구 선유로 138 (양평동3가),150-103,롯데쇼핑(주) 롯데마트 양평점,2025-05-14 10:34:15,U,2025-05-16 02:40:00,대형마트,190352.321686588,447095.641206789,대규모점포,,37.526049,126.891646
414,대규모점포,08_25_01_P,5530000,2017553035707500001,2017-04-17,,1,영업/정상,1,정상영업,,,,,02-3011-2762,27586.0,,경기도 화성시 청계동 536 동탄역시범반도유보라아이비파크4.0,"경기도 화성시 동탄대로시범길 134 (청계동, 동탄역시범반도유보라아이비파크4.0)",18476,카림애비뉴,2023-11-21 15:09:30,U,2023-11-23 02:40:00,그 밖의 대규모점포,210075.319585403,410817.645865226,대규모점포,,37.199174,127.114278
420,대규모점포,08_25_01_P,3170000,2008317010507500001,2017-04-07,,1,영업/정상,1,정상영업,,,,,02-808-1522,98983.0,,서울특별시 금천구 시흥동 984번지,"서울특별시 금천구 시흥대로 97 (시흥동, 시흥유통상가)",08639,시흥산업용재유통센터,2024-04-18 09:03:39,U,2024-04-20 02:40:00,그 밖의 대규모점포,191226.287379467,437914.06299827,대규모점포,,37.443332,126.901643
421,대규모점포,08_25_01_P,4010000,2017401023907500001,2017-04-06,,1,영업/정상,1,정상영업,,,,,031-507-2004,26011.6,,,경기도 시흥시 시화벤처로 6-19 (정왕동),15119,한국기계유통단지관리사무소,2021-04-06 11:18:03,U,2021-04-08 02:40:00,전문점,172175.520009975,425615.044650386,대규모점포,,37.332139,126.686829
424,대규모점포,08_25_01_P,3010000,2017301013007500001,2017-03-23,,1,영업/정상,1,정상영업,,,,,02-2290-7125,13006.43,,,"서울특별시 중구 마장로 22 (신당동, DDP FASHION MALL)",04566,DDP FASHION MALL,2022-08-18 15:00:40,U,2022-08-20 02:40:00,그 밖의 대규모점포,200999.356221857,451654.418167327,대규모점포,,37.567174,127.0121
425,대규모점포,08_25_01_P,3520000,2017352012507500001,2017-03-13,,1,영업/정상,1,정상영업,,,,,032-260-1291,73019.58,406-082,인천광역시 연수구 송도동 170번지 1호,인천광역시 연수구 송도과학로16번길 33-1 (송도동),406-082,트리플 스트리트,2022-02-17 09:36:08,U,2022-02-19 02:40:00,쇼핑센터,169744.688401816,431034.673654182,대규모점포,,37.380894,126.659179
426,대규모점포,08_25_01_P,3330000,2017333013207500001,2017-02-14,,1,영업/정상,1,정상영업,,,,,051-740-9031,16491.58,,,부산광역시 해운대구 구남로29번길 21-0 (중동),612-721,(주)세이브존리베라,2024-12-23 14:08:39,U,2024-12-25 02:40:00,쇼핑센터,396855.45107649,186957.424724515,대규모점포,,35.162544,129.161322
427,대규모점포,08_25_01_P,4840000,2017484012707500001,2017-01-02,,1,영업/정상,1,정상영업,,,,,0267102733,50824.0,,전라남도 광양시 광양읍 덕례리 739번지,전라남도 광양시 광양읍 순광로 466 (LF스퀘어 테라스몰 광양점),57764,LF 스퀘어 테라스몰 광양점,2017-01-03 09:27:55,I,2018-08-31 23:59:59,복합쇼핑몰,251696.859112409,162781.271124753,대규모점포,,34.962571,127.56685
429,대규모점포,08_25_01_P,4671000,2016467021307500001,2016-12-27,,1,영업/정상,1,정상영업,,,,,0634470035,29123.2,,전북특별자치도 군산시 조촌동 450-21 외 3필지,전북특별자치도 군산시 조촌로 130(조촌동),54072,롯데쇼핑 주식회사 아울렛 군산점,2025-04-16 13:58:56,U,2025-04-18 02:40:00,복합쇼핑몰,176350.48248947,275156.881801195,대규모점포,,35.976449,126.738587
430,대규모점포,08_25_01_P,3340000,2016334008007500002,2016-12-02,,1,영업/정상,1,정상영업,,,,,0517108802,23810.3,,부산광역시 사하구 하단동 526번지 6호,부산광역시 사하구 낙동남로 1413 (하단동),49311,아트몰링 부산점,2017-06-27 20:50:28,I,2018-08-31 23:59:59,복합쇼핑몰,379212.079721725,180390.068955488,대규모점포,,35.106681,128.966368
432,대규모점포,08_25_01_P,4950000,2016495010907500001,2016-11-08,,1,영업/정상,1,정상영업,,,,,02-2118-6854,36551.21,,전라남도 무안군 삼향읍 남악리 2622번지,전라남도 무안군 삼향읍 남악로162번길 80,58579,롯데쇼핑(주) 남악점,2025-06-05 14:13:55,U,2025-06-08 02:40:00,복합쇼핑몰,150976.298714347,145015.31300588,대규모점포,,34.802564,126.465079
433,대규모점포,08_25_01_P,4040000,2016404015507500003,2016-10-31,,1,영업/정상,1,정상영업,,,,,02-380-9396,45170.0,465-240,경기도 하남시 학암동 660번지,경기도 하남시 위례대로 200 (학암동),465-240,스타필드 시티 위례점,2024-05-14 14:41:34,U,2024-05-16 02:40:00,쇼핑센터,213056.041875501,441993.377546086,대규모점포,,37.480037,127.148398
434,대규모점포,08_25_01_P,4040000,2016404022807500001,2016-10-31,,1,영업/정상,1,정상영업,,,,,02-380-9396,45170.0,,경기도 하남시 학암동 660번지 스타필드시티 위례점,"경기도 하남시 위례대로 200, 스타필드시티 위례점 (학암동)",13012,스타필드 시티 위례점,2020-06-10 15:15:29,I,2020-06-12 00:23:18,쇼핑센터,213056.041875501,441993.377546086,대규모점포,,37.480037,127.148398
435,대규모점포,08_25_01_P,3940000,2016394029807500003,2016-10-28,,1,영업/정상,1,정상영업,,,,,031-8035-2612,16529.11,,경기도 고양시 덕양구 도내동 1003 이케아 고양점,경기도 고양시 덕양구 권율대로 420(도내동),10551,롯데아울렛 고양점,2025-05-13 10:55:43,U,2025-05-15 02:40:00,쇼핑센터,187849.01957446,458589.280565554,대규모점포,,37.629575,126.863135
436,대규모점포,08_25_01_P,3940000,2016394029807500004,2016-10-28,,1,영업/정상,1,정상영업,,,,,02-310-8700,25226.79,,경기도 고양시 덕양구 도내동 1003번지,"경기도 고양시 덕양구 권율대로 420 (도내동, 이케아고양점)",10551,이케아 고양점,2024-02-14 11:14:20,U,2024-02-16 02:40:00,전문점,187849.01957446,458589.280565554,대규모점포,,37.629575,126.863135
437,대규모점포,08_25_01_P,3420000,2016342013507500002,2016-10-21,,1,영업/정상,1,정상영업,,,,,02-2630-2828,12921.0,701-300,대구광역시 동구 신서동 1187번지,,,코스트코 홀세일 대구점,2018-09-27 10:06:35,U,2018-09-27 23:59:59,대형마트,356223.244084316,265495.669079208,대규모점포,,35.877218,128.730694
438,대규모점포,08_25_01_P,3420000,2016342013507500001,2016-10-10,,1,영업/정상,1,정상영업,,,,,053-749-3593,105538.69,,대구광역시 동구 신천동 329번지 3호,대구광역시 동구 동부로 149 (신천동),41229,(주)신세계 동대구복합환승센터,2024-05-08 17:58:12,U,2024-05-10 02:40:00,백화점,347037.241970286,265407.404336831,대규모점포,,35.877844,128.628997
440,대규모점포,08_25_01_P,3350000,2016335010007500001,2016-10-06,,1,영업/정상,1,정상영업,,,,,051-583-5670,4477.24,609-340,부산광역시 금정구 남산동 93번지 1호,부산광역시 금정구  금강로  700 (남산동),609-340,남산(농수산)시장,2023-06-26 16:02:33,U,2023-06-28 02:40:00,그 밖의 대규모점포,390031.323015507,198770.905117783,대규모점포,,35.270266,129.089195
441,대규모점포,08_25_01_P,4010000,2016401023907500001,2016-09-22,,1,영업/정상,1,정상영업,,,,,02-2145-8487,13550.1,,,"경기도 시흥시 서울대학로278번길 67 (정왕동, 롯데마트(시흥배곧점))",15011,롯데쇼핑(주) 롯데마트 시흥배곧점,2025-05-01 14:31:37,U,2025-05-03 02:40:00,대형마트,176109.153092015,429698.791930655,대규모점포,,37.369044,126.731082
442,대규모점포,08_25_01_P,3650000,2016365011507500001,2016-08-29,,1,영업/정상,1,정상영업,,,,,042-526-0090,10976.99,,,"대전광역시 중구 태평로 71 (태평동, 삼부프라자)",34885,뉴 삼부프라자,2018-05-14 09:33:09,I,2018-08-31 23:59:59,그 밖의 대규모점포,235249.085595717,313681.079573387,대규모점포,,36.323277,127.39335
443,대규모점포,08_25_01_P,4050000,2016405037107500001,2016-08-01,,1,영업/정상,1,정상영업,,,,,0234535117,23126.86,,경기도 용인시 처인구 역북동 역북지구 복합용지 1,,,"(주)천우산업개발 역북패션아울렛, 마트",2017-03-15 08:53:43,I,2018-08-31 23:59:59,쇼핑센터,,,대규모점포,,,
444,대규모점포,08_25_01_P,4050000,2016405037107500002,2016-08-01,,1,영업/정상,1,정상영업,,,,,0312815400,46783.58,,경기도 용인시 수지구 성복동 23번지,경기도 용인시 수지구 심곡로 121 (성복동),16847,롯데몰 용인점,2021-03-17 18:16:36,U,2021-03-19 02:40:00,쇼핑센터,,,대규모점포,,,
445,대규모점포,08_25_01_P,4090000,2016409022907500001,2016-07-13,,1,영업/정상,1,정상영업,,,,,031-8048-5652,15477.73,,경기도 김포시 풍무동 884 트레이더스 김포점,경기도 김포시 김포대로 715(풍무동),10113,트레이더스 홀세일클럽 김포점,2024-04-12 09:15:27,U,2024-04-14 02:40:00,대형마트,176161.639045124,456729.11026583,대규모점포,,37.612586,126.730797
448,대규모점포,08_25_01_P,3400000,2016340007207500001,2016-06-29,,1,영업/정상,1,정상영업,,,,,02-3456-0000,12916.78,,부산광역시 기장군 기장읍 시랑리 489번지 9호,부산광역시 기장군 기장읍 기장해안로 98,46078,판타지오스퀘어,2023-02-23 11:27:40,U,2023-05-26 08:48:36,그 밖의 대규모점포,401472.222155142,189850.695819127,대규모점포,,35.18769,129.212665
449,대규모점포,08_25_01_P,5690000,2016569013607500003,2016-06-15,,1,영업/정상,1,정상영업,,,,,1899-9900,13750.56,,세종특별자치시 대평동 584번지 7호 코스트코 세종점,"세종특별자치시 종합운동장1로 14, 코스트코 세종점 (대평동)",30154,코스트코 홀세일 세종점,2018-10-30 10:59:35,U,2018-11-01 02:37:43,대형마트,224057.825004564,329646.154691509,대규모점포,,36.467491,127.269213
450,대규모점포,08_25_01_P,3480000,2016348032607500002,2016-05-30,,1,영업/정상,1,정상영업,,,,,053-617-0068,8626.12,,대구광역시 달성군 유가읍 봉리 619번지 테크노폴리스 M스퀘어+,"대구광역시 달성군 유가읍 테크노상업로 120, 테크노폴리스 M스퀘어+",43018,M SQUARE +,2019-01-03 19:48:07,U,2019-01-05 02:40:00,쇼핑센터,332209.678232161,244660.404545869,대규모점포,,35.693033,128.461434
451,대규모점포,08_25_01_P,5350000,2016535023407500001,2016-05-16,,1,영업/정상,1,정상영업,,,,,02-380-9470,55890.0,,경상남도 김해시 외동 1264번지,경상남도 김해시 김해대로 2232 (외동),50958,김해터미널쇼핑센터,2024-04-23 17:42:56,U,2024-04-25 02:40:00,쇼핑센터,370364.763087449,193812.296089474,대규모점포,,35.229132,128.872148
452,대규모점포,08_25_01_P,3110000,2016311013107500001,2016-04-27,,1,영업/정상,1,정상영업,,,,,02-6975-5901,57505.0,,서울특별시 은평구 진관동 79번지 15호,"서울특별시 은평구 통일로 1050 (진관동, 롯데몰은평점)",03306,롯데몰 은평,2025-08-06 09:16:49,U,2025-08-08 02:40:00,쇼핑센터,192694.92374224,459461.236119623,대규모점포,,37.637483,126.918023
453,대규모점포,08_25_01_P,3940000,2016394029807500001,2016-04-25,,1,영업/정상,1,정상영업,,,,,070-7896-7801,129225.0,,경기도 고양시 덕양구 동산동 370 스타필드 고양,"경기도 고양시 덕양구 고양대로 1955, 스타필드 고양 (동산동)",10595,스타필드 고양,2025-08-06 13:57:32,U,2025-08-08 02:40:00,복합쇼핑몰,190645.314309928,460528.947974088,대규모점포,,37.647084,126.894788
454,대규모점포,08_25_01_P,4040000,2016404015507500002,2016-04-14,,1,영업/정상,1,정상영업,,,,,031-796-4254,133515.61,,경기도 하남시 신장동 616번지 지역현안사업2지구 내 물류유통시설용지,"경기도 하남시 미사대로 750 (신장동, 스타필드하남)",12942,스타필드 하남,2025-08-12 10:11:42,U,2025-08-15 02:40:00,복합쇼핑몰,219699.010520355,449270.371200837,대규모점포,,37.545485,127.223697
455,대규모점포,08_25_01_P,4080000,2016408020807500001,2016-04-06,,1,영업/정상,1,정상영업,,,,,02-727-3732,106011.0,,경기도 안성시 공도읍 진사리 354번지 외 17필지,경기도 안성시 공도읍 서동대로 3980,17563,스타필드 안성,2025-08-07 10:28:45,U,2025-08-09 02:40:00,복합쇼핑몰,213062.918998049,388093.036705258,대규모점포,,36.994376,127.147536
457,대규모점포,08_25_01_P,3660000,2016366013407500001,2016-03-23,,1,영업/정상,1,정상영업,,,,2016-04-29,0422293000,14002.03,302-223,대전광역시 서구 탄방동 745번지,대전광역시 서구 문정로 85-0 (탄방동),302-223,(주)세이디에스탄방점,2024-07-18 13:09:47,U,2024-07-20 02:40:00,쇼핑센터,234834.854791995,316331.886198716,대규모점포,,36.34718,127.388855
458,대규모점포,08_25_01_P,4181000,2016418027707500001,2016-03-14,,1,영업/정상,1,정상영업,,,,,0332519352,3820.61,200-853,강원특별자치도 춘천시 동면 장학리 산 35번지 2호,강원특별자치도 춘천시 건일길 79,200-853,엠에스리테일,2017-06-21 17:08:42,I,2023-06-13 00:00:00,대형마트,266666.985605448,487881.87763029,대규모점포,,37.891135,127.758678
460,대규모점포,08_25_01_P,3010000,2016301013007500001,2016-03-07,,1,영업/정상,1,정상영업,,,,,02-777-1163,9272.66,,,"서울특별시 중구 을지로 276 (을지로7가, apMPLACE)",04565,에이피엠플레이스,2024-04-30 16:18:26,U,2024-05-02 02:40:00,쇼핑센터,200673.011457453,451443.279894262,대규모점포,,37.565272,127.008406
462,대규모점포,08_25_01_P,4020000,2016402010807500001,2016-02-11,,1,영업/정상,1,정상영업,,,,,02-2299-2684,17003.14,,,경기도 군포시 번영로 485 (산본동),15866,LOTTE FITIN 산본점,2025-04-29 13:24:27,U,2025-05-01 02:40:00,쇼핑센터,193789.410732019,428419.578316283,대규모점포,,37.357806,126.930688
463,대규모점포,08_25_01_P,3640000,2011364010307500002,2016-02-11,,1,영업/정상,1,정상영업,,,,,281-8001,8435.05,300-050,대전광역시 동구 가오동 557번지,대전광역시 동구 은어송로 72 (가오동),300-050,홈플러스(주)대전가오점,2016-02-11 17:44:03,I,2018-08-31 23:59:59,대형마트,241064.767614979,311893.45796323,대규모점포,,36.306938,127.45802
465,대규모점포,08_25_01_P,4040000,2016404015507500001,2016-02-01,,1,영업/정상,1,정상영업,,,,,02-3457-8000,10350.0,465-030,경기도 하남시 신장동 747번지,,,홈플러스(주)하남점,2016-02-19 15:55:46,I,2018-08-31 23:59:59,대형마트,,,대규모점포,,,
466,대규모점포,08_25_01_P,5340000,2007534001607500002,2016-01-28,,1,영업/정상,1,정상영업,,,,,055 831 8131,13008.0,664-160,경상남도 사천시 벌리동 58번지 3호,경상남도 사천시 중앙로 165 (벌리동),664-834,홈플러스 삼천포점,2024-02-26 13:34:52,U,2024-02-28 02:40:00,대형마트,298587.268961901,160715.237733786,대규모점포,,34.940477,128.079958
467,대규모점포,08_25_01_P,3520000,2016352012507500001,2016-01-13,,1,영업/정상,1,정상영업,,,,,02-2630-2784,13875.64,,인천광역시 연수구 송도동 98번지,,,코스트코 홀세일 송도점,2017-03-07 16:45:21,I,2018-08-31 23:59:59,대형마트,167456.668495982,432023.341827917,대규모점포,,37.389725,126.633302
469,대규모점포,08_25_01_P,3220000,2015322016207500001,2015-12-11,,1,영업/정상,1,정상영업,,,,,02)3446-7133,5155.7,,,"서울특별시 강남구 강남대로 432 (역삼동, 점프밀라노)",06129,점프밀라노,2025-02-06 13:09:54,U,2025-02-08 02:40:00,그 밖의 대규모점포,202271.694937929,444339.880973826,대규모점포,,37.501268,127.026479
471,대규모점포,08_25_01_P,3400000,2015340007207500001,2015-11-24,,1,영업/정상,1,정상영업,,,,,051-201-2734,9474.97,,,부산광역시 기장군 장안읍 정관로 1142 (힐탑 프리미엄 아울렛),46029,힐탑 프리미엄 아울렛,2023-10-04 10:33:28,U,2023-10-06 02:40:00,전문점,403231.72054208,204710.416636969,대규모점포,,35.32117,129.235639
472,대규모점포,08_25_01_P,4820000,2015482024907500001,2015-11-23,,1,영업/정상,1,정상영업,,,,,,9482.31,,전라남도 순천시 해룡면 남가리 43번지 2호,전라남도 순천시 해룡면 상성길 70 (순천만플라자모다아울렛),58005,모다아울렛(MODAoutlet)순천만플라자,2024-05-16 13:04:32,U,2024-05-18 02:40:00,전문점,249664.403726206,158698.469519398,대규모점포,,34.925872,127.544355
473,대규모점포,08_25_01_P,3560000,2015356013707500001,2015-11-05,,1,영업/정상,1,정상영업,,,,,0322885000,21447.6,,인천광역시 서구 원창동 381번지 69호,"인천광역시 서구 북항로32번안길 50 (원창동, 모다아울렛인천점)",22769,(주)대명화학 유통사업부 인천점,2021-12-16 11:21:19,U,2021-12-18 02:40:00,대형마트,168787.60512663,445399.258471248,대규모점포,,37.510286,126.647764
475,대규모점포,08_25_01_P,5080000,2015508013307500001,2015-09-23,,1,영업/정상,1,정상영업,,,,,0544758908,9932.33,,"경상북도 구미시 구포동 1079번지 1080, 1081",경상북도 구미시 해마루공원로 21 (구포동),39421,해마루밸리,2016-03-22 09:40:02,I,2018-08-31 23:59:59,쇼핑센터,328477.262533758,293642.054135141,대규모점포,,36.134832,128.428113
476,대규모점포,08_25_01_P,3210000,2005321007607500007,2015-09-22,,1,영업/정상,1,정상영업,,,,,02-3479-1005,64948.72,,서울특별시 서초구 반포동 19번지 3호,서울특별시 서초구 신반포로 176 (반포동),,신세계백화점 강남점,2025-10-28 14:40:18,U,2025-10-30 02:40:00,대형마트,200250.447804795,444683.220506107,대규모점포,,37.504364,127.003621
477,대규모점포,08_25_01_P,3720000,2015372014207500003,2015-08-28,,1,영업/정상,1,정상영업,,,,,053-589-6017,18608.33,,"울산광역시 북구 진장동 283번지 4호 , 283번지 5호","울산광역시 북구 진장유통로 78-6 (진장동, 모다아울렛)",44248,모다아울렛,2021-04-15 18:14:01,U,2021-04-17 02:40:00,전문점,413607.045846035,233394.128239783,대규모점포,,35.57732,129.357167
478,대규모점포,08_25_01_P,5350000,2015535023407500001,2015-07-23,,1,영업/정상,1,정상영업,,,,,055-329-9000,34745.36,621-010,경상남도 김해시 부원동 1043번지,경상남도 김해시 김해대로 2342 (부원동),621-010,아이스퀘어몰,2017-10-31 14:12:01,I,2018-08-31 23:59:59,쇼핑센터,371384.790228704,193381.006626705,대규모점포,,35.225073,128.883257
479,대규모점포,08_25_01_P,3200000,2015320021107500002,2015-07-09,,1,영업/정상,1,정상영업,,,,,02-885-4579,4096.65,151-803,서울특별시 관악구 봉천동 10번지 4호 외14필지,서울특별시 관악구 청림3길 10 (봉천동),151-803,관악쇼핑,2016-07-20 18:06:16,I,2018-08-31 23:59:59,그 밖의 대규모점포,196347.099270374,442938.722385983,대규모점포,,37.488639,126.959485
480,대규모점포,08_25_01_P,3740000,2015374030907500003,2015-06-29,,1,영업/정상,1,정상영업,,,,,02-380-9394,16100.78,443-270,경기도 수원시 영통구 이의동 1240번지,경기도 수원시 영통구 광교로 191 (이의동),443-270,(주)이마트 광교점,2024-04-29 10:50:51,U,2024-05-01 02:40:00,대형마트,204159.790041271,421622.575799907,대규모점포,,37.296575,127.047706
481,대규모점포,08_25_01_P,5310000,2015531014307500001,2015-06-16,,1,영업/정상,1,정상영업,,,,,055-791-2536,34629.63,,경상남도 진주시 충무공동 35번지,경상남도 진주시 동진로 440 (충무공동),52851,롯데몰 진주점,2025-12-30 17:19:05,U,2026-01-01 02:40:00,복합쇼핑몰,303762.559264618,187362.850391251,대규모점포,,35.180107,128.139927
482,대규모점포,08_25_01_P,3740000,2015374030907500002,2015-05-29,,1,영업/정상,1,정상영업,,,,,02-6177-0621,25461.0,443-270,경기도 수원시 영통구 이의동 1332번지,경기도 수원시 영통구 센트럴타운로 85 (이의동),443-270,아브뉴프랑광교점,2024-11-27 17:06:54,U,2024-11-29 02:40:00,쇼핑센터,204409.226022404,420967.617798492,대규모점포,,37.290673,127.050515
483,대규모점포,08_25_01_P,4050000,2015405037107500001,2015-05-28,,1,영업/정상,1,정상영업,,,,,031-285-4724,5766.11,446-902,경기도 용인시 기흥구 공세동,경기도 용인시 기흥구 공세로 186 (공세동),446-902,한섬 패션웨어하우스,2021-04-20 14:10:08,U,2021-04-22 02:40:00,전문점,209153.939131626,415263.040054563,대규모점포,,37.239239,127.103954
484,대규모점포,08_25_01_P,3420000,2015342013507500001,2015-05-22,,1,영업/정상,1,정상영업,,,,,053-430-2612,34772.76,,대구광역시 동구 신천동 294번지 5호,대구광역시 동구 동대구로 454 (신천동),,(주)현대백화점 현대시티아울렛 대구점,2024-04-02 09:09:41,U,2024-04-04 02:40:00,쇼핑센터,346807.086927073,264654.357512466,대규모점포,,35.871095,128.626311
485,대규모점포,08_25_01_P,3740000,2015374030907500001,2015-05-18,,1,영업/정상,1,정상영업,,,,,02-2118-6891,31749.58,,경기도 수원시 영통구 이의동 1338번지,"경기도 수원시 영통구 도청로 10 (이의동, 광교센트럴푸르지오시티)",16508,롯데쇼핑(주)롯데몰 광교점,2024-04-05 14:08:37,U,2024-04-07 02:40:00,쇼핑센터,204888.855554772,420476.391558834,대규모점포,,37.286244,127.055921
486,대규모점포,08_25_01_P,5680000,2015568022207500001,2015-05-07,,1,영업/정상,1,정상영업,,,,,041-970-2408,14785.41,,충청남도 당진시 신평면 매산리 516번지 4호,충청남도 당진시 신평면 서해안고속도로 276 (모다아울렛),31750,(주)모다이노칩 행담도점,2024-06-05 16:14:48,U,2024-06-08 02:40:00,전문점,182853.447608493,382877.61678826,대규모점포,,36.947313,126.808295
487,대규모점포,08_25_01_P,3780000,2015378021907500001,2015-04-14,,1,영업/정상,1,정상영업,,,,,070-7204-9702,59887.88,,경기도 성남시 분당구 백현동 541 현대백화점 판교점,"경기도 성남시 분당구 판교역로146번길 20, 현대백화점 판교점 (백현동)",13529,현대백화점 판교점,2024-03-04 16:12:15,U,2024-03-06 02:40:00,백화점,209850.446960528,432304.149379043,대규모점포,,37.392776,127.112028
488,대규모점포,08_25_01_P,3040000,2015304016807500001,2015-04-03,,1,영업/정상,1,정상영업,,,,,3677-7281,4037.2,,서울특별시 광진구 자양동 17번지 1호,서울특별시 광진구 아차산로 200 (자양동),05071,커먼그라운드,2016-11-28 11:17:58,I,2018-08-31 23:59:59,그 밖의 대규모점포,205758.816662193,448768.161400623,대규모점포,,37.541152,127.06595
490,대규모점포,08_25_01_P,3970000,2015397003207500001,2015-03-17,,1,영업/정상,1,정상영업,,,,,02-380-9396,9798.0,,,경기도 과천시 별양상가3로 11-0 (별양동),427-800,이마트과천점,2024-04-17 16:41:40,U,2024-04-19 02:40:00,복합쇼핑몰,199209.021144538,436019.965418918,대규모점포,,37.426307,126.991853
491,대규모점포,08_25_01_P,3940000,2000394000007500004,2015-03-06,,1,영업/정상,1,정상영업,,,,,031 912 6011,4162.0,412-290,경기도 고양시 일산서구 주엽동 83번지,경기도 고양시 일산서구 중앙로 1391-0 (주엽동),411-742,두진레이크,2017-04-06 18:31:13,I,2018-08-31 23:59:59,그 밖의 대규모점포,179162.766413313,462851.25056701,대규모점포,,37.667818,126.764612
492,대규모점포,08_25_01_P,5380000,2015538018707500001,2015-02-12,,1,영업/정상,1,정상영업,,,,,055-380-4800,3599.19,,,경상남도 양산시 동면 수질정화공원로 40,626-821,박스스토어,2015-02-20 15:50:08,I,2018-08-31 23:59:59,그 밖의 대규모점포,384040.051012233,202516.471968794,대규모점포,,35.305123,129.02423
493,대규모점포,08_25_01_P,4090000,2015409022907500001,2015-02-09,,1,영업/정상,1,정상영업,,,,,070-7204-4920,38726.6,415-816,경기도 김포시 고촌읍 전호리 654번지,경기도 김포시 고촌읍 아라육로152번길  100,415-816,현대프리미엄아울렛 김포점,2024-05-08 13:08:37,U,2024-05-10 02:40:00,쇼핑센터,180999.482133785,455254.138222429,대규모점포,,37.59941,126.785628
494,대규모점포,08_25_01_P,3310000,2015331008807500002,2015-02-04,,1,영업/정상,1,정상영업,,,,,051)625-2532,3670.35,608-839,부산광역시 남구 용호동 566번지 3호,부산광역시 남구 이기대공원로 450 (용호동),608-839,다보네가구,2018-09-28 15:23:56,U,2018-09-28 23:59:59,전문점,392620.767456147,180839.195728232,대규모점포,,35.108254,129.11345
495,대규모점포,08_25_01_P,3210000,2015321015507500001,2015-02-03,,1,영업/정상,1,정상영업,,,,,02-2145-8000,12066.12,,"서울특별시 서초구 서초동 1498-5 마제스타시티, 힐스테이트 서리풀","서울특별시 서초구 서초대로38길 12 (서초동, 마제스타시티, 힐스테이트 서리풀)",06655,롯데쇼핑(주) 롯데마트 서초점,2025-05-02 10:00:26,U,2025-05-04 02:40:00,대형마트,200440.010811975,443124.671418408,대규모점포,,37.490322,127.005764
497,대규모점포,08_25_01_P,5370000,2015537016507500001,2015-01-21,,1,영업/정상,1,정상영업,,,,,055-680-5801,10876.03,,경상남도 거제시 옥포동 443번지 옥포아파트,"경상남도 거제시 서간도길 9-9 (옥포동, 거제엘크루랜드마크,롯데마트)",53227,롯데쇼핑(주) 롯데마트 거제점,2025-05-07 11:58:09,U,2025-05-09 02:40:00,대형마트,354141.686293625,155958.799201757,대규모점포,,34.890703,128.686995
498,대규모점포,08_25_01_P,5690000,201556902920750001,2015-01-09,,1,영업/정상,1,정상영업,,,,,044-902-1234,13996.41,,세종특별자치시 가람동 970번지 이마트세종점,"세종특별자치시 금송로 687, 이마트세종점 (가람동)",30065,이마트 세종점,2024-04-15 13:29:34,U,2024-04-17 02:40:00,대형마트,222425.493016349,330046.389124869,대규모점포,,36.471137,127.251013
499,대규모점포,08_25_01_P,5690000,2015569013607500001,2015-01-09,,1,영업/정상,1,정상영업,,,,,044-902-1234,13996.41,,세종특별자치시 가람동 406번지 이마트세종점,"세종특별자치시 금송로 687, 이마트세종점 (가람동)",30065,이마트 세종점,2018-07-06 15:27:28,I,2018-08-31 23:59:59,대형마트,222425.493016349,330046.389124869,대규모점포,,36.471137,127.251013
500,대규모점포,08_25_01_P,3310000,2015331008807500001,2015-01-08,,1,영업/정상,1,정상영업,,,,,051)630-5000,41762.67,608-091,부산광역시 남구 용호동 954번지,,,W 스퀘어,2024-12-26 16:06:54,U,2024-12-28 02:40:00,쇼핑센터,392495.046847798,183633.944535074,대규모점포,,35.133452,129.112722
501,대규모점포,08_25_01_P,5310000,2012531014307500001,2014-12-29,,1,영업/정상,1,정상영업,,,,,055-791-1000,23584.0,,경상남도 진주시 평안동 195번지 한화갤러리아백화점,"경상남도 진주시 진주대로 1095, 한화갤러리아백화점 (평안동)",52683,한화갤러리아(주) 진주점,2023-11-29 17:53:38,U,2023-12-01 02:40:00,백화점,298496.244248712,189144.044742329,대규모점포,,35.196688,128.082335
502,대규모점포,08_25_01_P,3540000,2014354011907500005,2014-12-26,,1,영업/정상,1,정상영업,,,,,032-573-2001,21470.56,,인천광역시 부평구 산곡동 311번지 151호,인천광역시 부평구 경원대로 1277 (산곡동),21384,이천일아울렛부평점,2024-12-09 09:39:25,U,2024-12-11 02:40:00,복합쇼핑몰,174296.583284585,443196.9838165,대규모점포,,37.490614,126.710149
503,대규모점포,08_25_01_P,5350000,2014535023407500001,2014-12-24,,1,영업/정상,1,정상영업,,,,,055-342-4700,4368.39,621-801,경상남도 김해시 진영읍 내룡리 76번지,경상남도 김해시 진영읍 서부로 76,621-801,"넥스틸(주), (주)대성철강",2016-06-23 14:07:42,I,2018-08-31 23:59:59,전문점,360244.0266089,200344.093352932,대규모점포,,35.289644,128.762299
504,대규모점포,08_25_01_P,3080000,2014308013907500001,2014-12-24,,1,영업/정상,1,정상영업,,,,,02-981-1151,12353.04,142-100,서울특별시 강북구 미아동 71번지 1호,서울특별시 강북구 도봉로 52 (미아동),142-100,연이스퀘어,2019-03-11 15:16:58,U,2019-03-13 02:40:00,쇼핑센터,202624.617262819,456818.85207077,대규모점포,,37.613701,127.030514
505,대규모점포,08_25_01_P,4070000,2014407008807500001,2014-12-17,,1,영업/정상,1,정상영업,,,,,,14460.81,,경기도 이천시 안흥동 474번지 롯데캐슬 골드스카이,"경기도 이천시 구만리로 191 (안흥동, 롯데캐슬 골드스카이)",17372,롯데쇼핑(주) 롯데마트 이천점,2025-05-30 10:59:26,U,2025-06-01 02:40:00,대형마트,240254.30365186,419284.62693122,대규모점포,,37.274652,127.45466
506,대규모점포,08_25_01_P,3030000,2014303010307500001,2014-12-09,,1,영업/정상,1,정상영업,,,,,"2207-9991, 6454-6301",13996.64,,,서울특별시 성동구 왕십리로 241 (행당동),133-866,파크에비뉴 엔터식스 한양대점,2019-09-20 17:52:31,U,2019-09-22 02:40:00,복합쇼핑몰,203481.628249668,450468.773302861,대규모점포,,37.556485,127.040191
507,대규모점포,08_25_01_P,3520000,2014352010507500002,2014-12-01,,1,영업/정상,1,정상영업,,,,,032-727-2711,44642.85,,인천광역시 연수구 송도동 168번지 1호 현대프리미엄 아울렛 송도점,"인천광역시 연수구 송도국제대로 123, 현대프리미엄 아울렛 송도점 (송도동)",21984,현대백화점 프리미엄 아울렛 송도점,2024-05-07 10:52:46,U,2024-05-09 02:40:00,쇼핑센터,169690.265503087,431199.593676188,대규모점포,,37.382378,126.658557
508,대규모점포,08_25_01_P,3900000,2014390019607500003,2014-11-26,,1,영업/정상,1,정상영업,,,,,02-771-2500,39420.7,423-090,경기도 광명시 일직동 500번지,경기도 광명시 일직로 17 (일직동),423-090,롯데몰 광명점,2025-04-30 17:42:34,U,2025-05-02 02:40:00,쇼핑센터,189614.445095321,435789.264012576,대규모점포,,37.42417,126.883459
509,대규모점포,08_25_01_P,3220000,2014322016207500011,2014-11-25,,1,영업/정상,1,정상영업,,,,,02-551-0705,13667.0,,,서울특별시 강남구 테헤란로87길 22-0 (삼성동),135-728,도심공항몰(CALT MALL),2019-04-11 14:04:06,U,2019-04-13 02:40:00,쇼핑센터,205170.959716696,445264.936337181,대규모점포,,37.509591,127.059274
510,대규모점포,08_25_01_P,3740000,2014374017307500005,2014-11-20,,1,영업/정상,1,정상영업,,,,,031-247-3055,74247.63,,경기도 수원시 권선구 서둔동 381번지 롯데몰수원점,"경기도 수원시 권선구 세화로 134 (서둔동, 롯데몰수원점)",16621,타임빌라스 수원,2024-05-22 10:06:17,U,2024-05-24 02:40:00,쇼핑센터,199673.378589066,418025.547756245,대규모점포,,37.264174,126.997109
512,대규모점포,08_25_01_P,3400000,2014340004407500001,2014-10-21,,1,영업/정상,1,정상영업,,,,,02-771-2500,81233.42,619-902,부산광역시 기장군 기장읍 당사리 64번지 외 106필지 (동부산관광단지 내),부산광역시 기장군 기장읍 기장해안로 147 (동부산관광단지내),619-902,롯데몰 동부산점,2025-05-14 11:31:21,U,2025-05-16 02:40:00,복합쇼핑몰,401473.950698586,190354.255834345,대규모점포,,35.192225,129.212807
513,대규모점포,08_25_01_P,3540000,2014354011907500001,2014-10-15,,1,영업/정상,1,정상영업,,,,,454-2520,8695.0,403-011,인천광역시 부평구 부평동 16번지,인천광역시 부평구 광장로 16-0 (부평동),403-011,롯데쇼핑(주)롯데마트 부평역점,2021-12-24 13:42:58,U,2021-12-26 02:40:00,대형마트,175405.11373693,443089.591009306,대규모점포,,37.489677,126.722687
520,대규모점포,08_25_01_P,3540000,2007354006107500001,2014-10-01,,1,영업/정상,1,정상영업,,,,,0324522812,18601.4,,인천광역시 부평구 부평동 70번지 127호,"인천광역시 부평구 부평문화로 35 (부평동, 롯데백화점)",21387,롯데백화점 부평점,2017-06-13 10:04:09,I,2018-08-31 23:59:59,백화점,175119.872281497,443502.318221991,대규모점포,,37.493387,126.719448
521,대규모점포,08_25_01_P,3540000,2007354006107500002,2014-10-01,,1,영업/정상,1,정상영업,,,,,032-363-2500,15652.92,,인천광역시 부평구 삼산동 465번지 1호,"인천광역시 부평구 길주로 623 (삼산동, 대덕리치아노)",21344,롯데쇼핑(주)롯데마트 삼산점,2020-02-13 09:25:31,U,2020-02-15 02:40:00,대형마트,176238.624820895,445107.924835985,대규모점포,,37.507883,126.732046
522,대규모점포,08_25_01_P,3540000,2014354011907500003,2014-10-01,,1,영업/정상,1,정상영업,,,,,02-2073-5111,18601.4,,인천광역시 부평구 부평동 70번지 127호,인천광역시 부평구 부평문화로 35 (부평동),21387,모다이노칩 부평점,2024-08-13 13:57:20,U,2024-08-15 02:40:00,백화점,175119.872281497,443502.318221991,대규모점포,,37.493387,126.719448
526,대규모점포,08_25_01_P,4090000,2014409022907500001,2014-09-26,,1,영업/정상,1,정상영업,,,,,02-2145-8487,11900.82,415-060,경기도 김포시 장기동 2031번지,경기도 김포시 김포한강2로 41 (장기동),415-060,롯데쇼핑(주) 롯데마트 김포한강점,2017-12-20 17:03:35,I,2018-08-31 23:59:59,대형마트,171471.604963288,459839.83969575,대규모점포,,37.640479,126.677557
531,대규모점포,08_25_01_P,5310000,1997531000007500015,2014-09-18,,1,영업/정상,1,정상영업,,,,,0557580959,5845.0,,경상남도 진주시 하대동 315호,경상남도 진주시 도동로 251 (하대동),660-993,삼전프라자상가,2025-09-01 15:48:48,U,2025-09-03 02:40:00,대형마트,302039.942281779,188748.784334961,대규모점포,,35.192773,128.12119
532,대규모점포,08_25_01_P,4820000,2005482011807500001,2014-09-17,,1,영업/정상,1,정상영업,,,,,749-1052,9507.52,,전라남도 순천시 덕암동 169호 외 4필지,"전라남도 순천시 팔마로 191 (덕암동,외 4필지)",,(주)이마트 순천점,2024-04-16 15:25:57,U,2024-04-18 02:40:00,대형마트,246400.830087538,160517.102712463,대규모점포,,34.942419,127.508739
534,대규모점포,08_25_01_P,4820000,2011482015207500001,2014-09-17,,1,영업/정상,1,정상영업,,,,,061 746 2080,16224.04,540-745,전라남도 순천시 풍덕동 300번지,전라남도 순천시  팔마로  222 (풍덕동),540-745,홈플러스(주)순천풍덕점,2024-03-05 11:10:59,U,2024-03-07 02:40:00,대형마트,246427.675879142,160255.485969845,대규모점포,,34.94006,127.509019
536,대규모점포,08_25_01_P,5310000,2010531001307500001,2014-09-17,,1,영업/정상,1,정상영업,,,,,055-771-8121,10703.0,,경상남도 진주시 상대동 181-1 홈플러스,"경상남도 진주시 대신로 304, 홈플러스 (상대동)",52775,홈플러스 진주점,2021-06-16 17:11:06,U,2021-06-18 02:40:00,대형마트,301729.02108352,188168.815314509,대규모점포,,35.187578,128.117706
543,대규모점포,08_25_01_P,5310000,2014531014307500003,2014-09-04,,1,영업/정상,1,정상영업,,,,,055-923-1191,13693.0,660-822,경상남도 진주시 정촌면 예하리 1276번지 1호,경상남도 진주시 정촌면 삼일로95번길 46,660-822,모다아울렛 진주1호점,2021-12-29 10:25:21,U,2021-12-31 02:40:00,전문점,300045.755290671,182016.059175772,대규모점포,,35.132299,128.098483
544,대규모점포,08_25_01_P,5310000,2014531014307500004,2014-09-04,,1,영업/정상,1,정상영업,,,,,055-923-1100,4803.48,660-822,경상남도 진주시 정촌면 예하리 1277번지 3호,경상남도 진주시 정촌면 삼일로105번길 15,660-822,모다아울렛 진주2호점,2024-05-03 11:52:02,U,2024-05-05 02:40:00,전문점,300034.548207885,181822.424910566,대규모점포,,35.130555,128.098337
545,대규모점포,08_25_01_P,3310000,2014331008807500001,2014-08-18,,1,영업/정상,1,정상영업,,,,,051)913-5000,9643.53,608-042,부산광역시 남구 문현동 1229번지 1호,부산광역시 남구 문현금융로 40 (문현동),608-042,비아이에프씨몰(BIFC Mall),2024-11-04 16:31:37,U,2024-11-06 02:40:00,그 밖의 대규모점포,388182.381367829,185024.662471639,대규모점포,,35.146794,129.065751
548,대규모점포,08_25_01_P,3900000,2014390016207500001,2014-07-25,,1,영업/정상,1,정상영업,,,,,02-310-8700,27668.48,,,경기도 광명시 일직로 17 (일직동),423-090,이케아 광명점,2024-02-26 09:26:55,U,2024-02-28 02:40:00,전문점,,,대규모점포,,,
549,대규모점포,08_25_01_P,5690000,2014569002107500001,2014-07-25,,1,영업/정상,1,정상영업,,,,,044-715-8124,23716.0,,세종특별자치시 어진동 503번지 홈플러스 세종점,세종특별자치시 절재로 154 (어진동),30102,홈플러스(주) 세종점,2025-08-19 15:25:09,U,2025-08-21 02:40:00,대형마트,223118.17941601,334063.124365711,대규모점포,,36.507317,127.258861
550,대규모점포,08_25_01_P,3250000,2014325008307500001,2014-07-23,,1,영업/정상,1,정상영업,,,,,051-678-2500,3331.35,,,부산광역시 중구 중앙대로 2 (중앙동7가),600-017,롯데전문점 광복점,2025-04-29 19:40:28,U,2025-05-01 02:40:00,전문점,385590.814676765,179553.867031936,대규모점포,,35.097995,129.036103
551,대규모점포,08_25_01_P,4641000,2014464036307500001,2014-07-23,,1,영업/정상,1,정상영업,,,,,,12433.45,,,전북특별자치도 전주시 완산구 용머리로 45 (효자동1가),560-856,몰오브효자(Mall of hyoja),2020-04-11 21:42:42,I,2024-01-19 01:16:45,복합쇼핑몰,210401.08065162,256333.133658056,대규모점포,,35.807035,127.115881
552,대규모점포,08_25_01_P,3230000,2014323019807500014,2014-07-18,,1,영업/정상,1,정상영업,,,,,02-2050-5298,4507.29,138-731,서울특별시 송파구 신천동 29번지,서울특별시 송파구 올림픽로 300-0 (신천동),138-731,롯데하이마트 월드타워점,2016-10-17 16:47:27,I,2018-08-31 23:59:59,전문점,209074.900840074,445657.80932984,대규모점포,,37.513101,127.103433
553,대규모점포,08_25_01_P,5310000,2014531014307500002,2014-07-17,,1,영업/정상,1,정상영업,,,,,051-330-2553,9081.0,,경상남도 진주시 평거동 921 탑마트 진주평거점,"경상남도 진주시 새평거로 136, 탑마트 진주평거점 (평거동)",52703,(주)서원유통 탑마트 서진주점,2025-04-28 17:02:46,U,2025-04-30 02:40:00,대형마트,296667.581907024,186203.859967488,대규모점포,,35.170369,128.061914
554,대규모점포,08_25_01_P,3230000,2014323019807500010,2014-07-17,,1,영업/정상,1,정상영업,,,,,02-411-5100,52792.2,138-240,서울특별시 송파구 신천동 29번지,서울특별시 송파구 올림픽로 300 (신천동),138-240,롯데월드몰,2024-03-25 09:12:55,U,2024-03-27 02:40:00,쇼핑센터,209074.900840074,445657.80932984,대규모점포,,37.513101,127.103433
555,대규모점포,08_25_01_P,3230000,2014323019807500011,2014-07-17,,1,영업/정상,1,정상영업,,,,,02-2146-2181,31680.32,138-240,서울특별시 송파구 신천동 29번지,,,롯데백화점 에비뉴엘 월드타워점,2022-04-29 16:42:26,U,2022-05-03 02:40:00,백화점,209074.900840074,445657.80932984,대규모점포,,37.513101,127.103433
556,대규모점포,08_25_01_P,3230000,2014323019807500012,2014-07-17,,1,영업/정상,1,정상영업,,,,,02-2145-8494,6665.89,,서울특별시 송파구 신천동 29번지 롯데월드타워앤드롯데월드몰,"서울특별시 송파구 올림픽로 300, 롯데월드타워앤드롯데월드몰 (신천동)",05551,롯데쇼핑(주) 롯데마트 월드타워점,2025-05-22 17:56:14,U,2025-05-24 02:40:00,대형마트,209074.900840074,445657.80932984,대규모점포,,37.513101,127.103433
557,대규모점포,08_25_01_P,3540000,2014354011907500002,2014-07-01,,1,영업/정상,1,정상영업,,,,,509-2524,13763.0,,,"인천광역시 부평구 마장로 296-0 (산곡동, 롯데마트 부평점)",21362,롯데쇼핑(주)롯데마트 부평점,2020-02-13 09:20:44,U,2020-02-15 02:40:00,대형마트,173767.426219215,444794.439991356,대규모점포,,37.504992,126.704108
558,대규모점포,08_25_01_P,3520000,2014352010507500001,2014-06-27,,1,영업/정상,1,정상영업,,,,,02-3459-1720,29337.0,406-081,인천광역시 연수구 송도동 168번지 3호,인천광역시 연수구 송도국제대로 165-0 (송도동),406-081,홈플러스 인천송도점,2024-02-29 12:14:10,U,2024-03-02 02:40:00,쇼핑센터,169499.618663809,430950.250482797,대규모점포,,37.380126,126.656415
559,대규모점포,08_25_01_P,3360000,2014336010507500001,2014-05-12,,1,영업/정상,1,정상영업,,,,,051-313-1818,68225.93,618-899,부산광역시 강서구 대저2동 3154번지 2호,부산광역시 강서구 유통단지1로57번길 34 (대저2동),618-899,부산 자동차부품 유통단지,2023-12-07 10:57:09,U,2023-12-09 02:40:00,전문점,377990.540923002,186717.509501627,대규모점포,,35.163897,128.954339
560,대규모점포,08_25_01_P,4090000,2014409022907500002,2014-05-12,,1,영업/정상,1,정상영업,,,,,031-996-8434,12339.22,415-080,경기도 김포시 구래동 6880번지 9호,경기도 김포시 김포한강7로 71 (구래동),415-080,이마트 김포한강점,2024-04-15 17:09:25,U,2024-04-17 02:40:00,대형마트,167119.660833957,460295.332269763,대규모점포,,37.644437,126.62823
562,대규모점포,08_25_01_P,5710000,2014436020307500001,2014-04-23,,1,영업/정상,1,정상영업,,,,,043-239-8004,13983.0,361-810,충청북도 청주시 흥덕구 복대동 288-14번지,충청북도 청주시 흥덕구 대농로 47-1 (복대동),361-810,지웰시티몰 Ⅱ,2025-10-28 13:32:06,U,2025-10-30 02:40:00,복합쇼핑몰,238310.202218021,349177.645947792,대규모점포,,36.64303,127.429193
563,대규모점포,08_25_01_P,5340000,2014534001607500001,2014-04-15,,1,영업/정상,1,정상영업,,,,,850-1272,6659.99,,,경상남도 사천시 삼천포대교로 591 (좌룡동),664-130,(주)이마트 사천점,2024-04-16 17:46:27,U,2024-04-18 02:40:00,구분없음,298325.164351214,161845.029914848,대규모점포,,34.950684,128.077223
564,대규모점포,08_25_01_P,3640000,2014364011407500001,2014-04-07,,1,영업/정상,1,정상영업,,,,,615-1274,23787.54,300-725,1689번지,대전광역시 동구 동서대로 1689-0 (용전동),300-725,(주)이마트 대전터미널점,2024-04-22 12:46:23,U,2024-04-24 02:40:00,복합쇼핑몰,239122.638390937,316705.693668735,대규모점포,,36.350384,127.436638
565,대규모점포,08_25_01_P,5060000,2014506010207500001,2014-04-01,,1,영업/정상,1,정상영업,,,,2014-11-27,02-2145-8000,9111.86,740-150,경상북도 김천시 신음동 470번지,경상북도 김천시 시청로 80 (신음동),740-978,롯데쇼핑(주) 롯데마트 김천점,2025-04-28 17:25:35,U,2025-04-30 02:40:00,복합쇼핑몰,300539.27821686,293407.852900489,대규모점포,,36.136016,128.117768
566,대규모점포,08_25_01_P,3220000,2014322016207500001,2014-03-25,,1,영업/정상,1,정상영업,,,,2014-03-26,02-3446-5999,3246.51,,,서울특별시 강남구 도산대로85길 30 (청담동),135-955,신원아침도시마인상가,2014-03-26 13:21:24,I,2018-08-31 23:59:59,그 밖의 대규모점포,204320.63321904,447133.658518474,대규모점포,,37.526433,127.049667
568,대규모점포,08_25_01_P,3200000,2014320019107500002,2014-01-23,,1,영업/정상,1,정상영업,,,,,02-889-8188,4379.68,151-895,서울특별시 관악구 대학동 1523번지,서울특별시 관악구 신림로23길 16 (신림동),151-015,일성트루엘상가,2016-02-03 10:17:30,I,2018-08-31 23:59:59,그 밖의 대규모점포,194135.772735482,440917.845099207,대규모점포,,37.470419,126.934497
570,대규모점포,08_25_01_P,3660000,2014366013407500001,2014-01-10,,1,영업/정상,1,정상영업,,,,,0427181234,11319.0,,대전광역시 서구 월평동 510,대전광역시 서구 한밭대로 580(월평동),35222,(주)이마트 트레이더스 월평점,2022-11-14 11:13:02,U,2022-11-16 02:40:00,구분없음,232507.184505762,317488.107936776,대규모점포,,36.35768,127.362974
571,대규모점포,08_25_01_P,3650000,2002365007907500002,2014-01-08,,1,영업/정상,1,정상영업,,,,,718-2422,13994.16,,대전광역시 중구 선화동 3번지 14  호,대전광역시 중구 중앙로 141 (선화동),301-050,이랜드리테일 NC 중앙로역점,2024-11-25 11:27:18,U,2024-11-27 02:40:00,백화점,238117.420454614,314301.953643137,대규모점포,,36.328763,127.425322
572,대규모점포,08_25_01_P,3360000,2013336010507500002,2013-12-31,,1,영업/정상,1,정상영업,,,,,051-311-4434,53530.86,,부산광역시 강서구 대저2동 3141번지 8호,부산광역시 강서구 유통단지1로 76 (대저2동),46721,BMCO,2023-09-08 10:47:57,U,2023-09-10 02:40:00,전문점,377830.639751847,187153.695178996,대규모점포,,35.167854,128.952678
573,대규모점포,08_25_01_P,3980000,2013398010807500001,2013-12-31,,1,영업/정상,1,정상영업,,,,,025578828,19936.36,,경기도 구리시 인창동 419번지 7호 구리 복합몰(롯데아울렛 구리점),"경기도 구리시 동구릉로136번길 47, 구리 복합몰(롯데아울렛 구리점) (인창동)",11915,롯데 아울렛 구리점,2025-05-22 15:04:03,U,2025-05-24 02:40:00,쇼핑센터,212338.516597728,456623.179059563,대규모점포,,37.61186,127.140531
574,대규모점포,08_25_01_P,4000000,2013400014507500001,2013-12-30,,1,영업/정상,1,정상영업,,,,,031-8043-4492,4779.04,447-230,경기도 오산시 외삼미동 562번지 30호,경기도 오산시 경기대로 822-30 (외삼미동),447-230,모다아울렛 A동 오산점,2024-05-08 14:01:24,U,2024-05-10 02:40:00,전문점,204020.411719317,410030.536433244,대규모점포,,37.192127,127.046073
575,대규모점포,08_25_01_P,3520000,2013352010507500002,2013-12-02,,1,영업/정상,1,정상영업,,,,,032-222-2523,10874.0,406-081,인천광역시 연수구 송도1동 6번지 11호,인천광역시 연수구 컨벤시아대로 177 (송도동),406-840,롯데쇼핑(주) 롯데마트 송도점,2022-04-28 16:21:10,U,2022-04-30 02:40:00,대형마트,168348.646973511,431855.205739156,대규모점포,,37.388241,126.643381
576,대규모점포,08_25_01_P,4490000,2013449023407500002,2013-11-29,,1,영업/정상,1,정상영업,,,,,041 554 1111,9248.0,,,충청남도 천안시 서북구 음봉로 891 (백석동),331-979,원랜드 패션몰,2018-05-25 10:05:56,I,2018-08-31 23:59:59,그 밖의 대규모점포,209375.772420834,369243.828899857,대규모점포,,36.824571,127.105885
577,대규모점포,08_25_01_P,3060000,2013306009507500001,2013-11-28,,1,영업/정상,1,정상영업,,,,,02-2207-9991,21844.34,,,"서울특별시 중랑구 망우로 353-0 (상봉동, 프레미어스 엠코)",131-857,이노시티,2024-06-18 15:25:21,U,2024-06-20 02:40:00,복합쇼핑몰,207923.745922676,455090.718335439,대규모점포,,37.598101,127.090514
578,대규모점포,08_25_01_P,3050000,2013305014007500002,2013-11-27,,1,영업/정상,1,정상영업,,,,,02-957-2116,3824.55,130-050,서울특별시 동대문구 회기동 346번지 18호,서울특별시 동대문구  이문로  37 (회기동),130-050,베라체캠퍼스 에비뉴,2022-04-06 11:28:46,U,2022-04-08 02:40:00,그 밖의 대규모점포,204881.313219146,454280.040555974,대규모점포,,37.590818,127.056057
579,대규모점포,08_25_01_P,5050000,2013505021307500001,2013-10-30,,1,영업/정상,1,정상영업,,,,,,5133.82,780-020,경상북도 경주시 노동동 140번지 6호,경상북도 경주시 계림로 101 (노동동),780-020,(주)준성공,2014-10-06 13:57:52,I,2018-08-31 23:59:59,백화점,399897.502965733,262635.121193853,대규모점포,,35.843525,129.213304
580,대규모점포,08_25_01_P,4070000,2013407008807500003,2013-10-30,,1,영업/정상,1,정상영업,,,,,031-633-6898,14628.0,467-804,경기도 이천시 창전동 152번지 5호,경기도 이천시 영창로 165 (창전동),467-804,(주)이랜드리테일NC이천점,2024-11-19 13:39:29,U,2024-11-21 02:40:00,쇼핑센터,239066.829966423,420094.84719581,대규모점포,,37.282002,127.441314
581,대규모점포,08_25_01_P,3930000,2013393028707500001,2013-10-17,,1,영업/정상,1,정상영업,,,,,02-510-8073,10746.11,425-850,경기도 안산시 단원구 원곡동 994번지 8호,경기도 안산시 단원구 풍전로 37-24 (원곡동),,트리플렉스 B단지,2013-10-17 18:22:37,I,2018-08-31 23:59:59,그 밖의 대규모점포,181240.4821091,424913.855250784,대규모점포,,37.326049,126.789131
582,대규모점포,08_25_01_P,3930000,2013393028707500002,2013-10-17,,1,영업/정상,1,정상영업,,,,,02-510-8073,31618.98,425-850,경기도 안산시 단원구 원곡동 994번지 6호,경기도 안산시 단원구 풍전로 37-9 (원곡동),,트리플렉스 A단지,2013-10-17 18:04:10,I,2018-08-31 23:59:59,그 밖의 대규모점포,181258.71259879,424761.274007584,대규모점포,,37.324675,126.789341
583,대규모점포,08_25_01_P,3170000,2013317014207500002,2013-09-06,,1,영업/정상,1,정상영업,,,,,02-2109-7000,24253.99,153-023,서울특별시 금천구 가산동 60번지 22호,서울특별시 금천구 디지털로 185 (가산동),153-801,마리오아울렛 1관,2023-02-28 20:56:47,U,2023-03-03 02:40:00,쇼핑센터,189943.234285288,441784.247518723,대규모점포,,37.478189,126.887091
584,대규모점포,08_25_01_P,3180000,2013318016307500001,2013-09-02,,1,영업/정상,1,정상영업,,,,,02-2609-2002,3003.29,,서울특별시 영등포구 대림동 717 대림동 쌍용 플래티넘-S,"서울특별시 영등포구 대림로29길 13 (대림동, 대림동 쌍용 플래티넘-S)",07413,두암상가,2020-09-07 11:17:23,U,2020-09-09 02:40:00,그 밖의 대규모점포,190916.911377676,443681.766720649,대규모점포,,37.495296,126.898076
585,대규모점포,08_25_01_P,4070000,2013407008807500002,2013-08-06,,1,영업/정상,1,정상영업,,,,,031-640-0521,69930.0,467-821,경기도 이천시 호법면 단천리 산 48번지 1호,경기도 이천시 호법면 프리미엄아울렛로 177-74,467-821,이천 롯데프리미엄 아울렛,2025-05-01 11:01:26,U,2025-05-03 02:40:00,복합쇼핑몰,235461.813044175,415640.639277805,대규모점포,,37.242013,127.400452
586,대규모점포,08_25_01_P,5090000,2013509007907500002,2013-07-29,,1,영업/정상,1,정상영업,,,,,,6860.0,,,경상북도 영주시 대학로261번길 30 (가흥동),750-902,영주농산물종합시장,2013-07-30 08:58:22,I,2018-08-31 23:59:59,그 밖의 대규모점포,,,대규모점포,,,
587,대규모점포,08_25_01_P,3820000,2013382017907500001,2013-07-24,,1,영업/정상,1,정상영업,,,,,0318503300,13503.11,,,경기도 의정부시 용민로489번길 9 (민락동),480-090,코스트코 홀세일 의정부점,2015-12-08 15:06:43,I,2018-08-31 23:59:59,대형마트,210434.566999847,472099.165269005,대규모점포,,37.751317,127.119187
588,대규모점포,08_25_01_P,3940000,2013394025707500005,2013-07-24,,1,영업/정상,1,정상영업,,,,,936-7740,21623.0,,경기도 고양시 일산동구 백석동 1242번지,"경기도 고양시 일산동구 중앙로 1036 (백석동, 베스트 고양터미널)",10450,롯데아울렛 고양터미널점,2017-02-01 10:21:46,I,2018-08-31 23:59:59,복합쇼핑몰,181369.967204096,460117.354561195,대규모점포,,37.643234,126.789699
590,대규모점포,08_25_01_P,3740000,2013374017307500002,2013-07-19,,1,영업/정상,1,정상영업,,,,,031-8005-1250~1,13669.94,,경기도 수원시 영통구 신동 941번지,경기도 수원시 영통구 삼성로 2 (신동),16682,트레이더스 홀세일클럽 수원점,2024-04-29 10:07:30,U,2024-05-01 02:40:00,대형마트,204246.15796254,416018.208911536,대규모점포,,37.246078,127.048649
591,대규모점포,08_25_01_P,5350000,2013535019607500001,2013-07-03,,1,영업/정상,1,정상영업,,,,,055 340 2800,11249.63,621-010,경상남도 김해시 부원동  부원역세권지구 A-1블럭,경상남도 김해시 김해대로 2330 (부원동),621-907,롯데쇼핑(주) 롯데마트 김해점,2025-05-02 16:29:19,U,2025-05-04 02:40:00,대형마트,371275.452046503,193430.416033372,대규모점포,,35.225536,128.882067
592,대규모점포,08_25_01_P,3200000,2013320019107500001,2013-06-27,,1,영업/정상,1,정상영업,,,,,02-6948-8121,14784.0,151-080,서울특별시 관악구 남현동 산 69번지 51호,서울특별시 관악구 과천대로 909 (남현동),151-801,홈플러스 서울남현점,2024-03-12 10:28:27,U,2024-03-14 02:40:00,대형마트,198374.473281221,441033.513044892,대규모점포,,37.471479,126.982413
593,대규모점포,08_25_01_P,3230000,2013323019807500006,2013-06-19,,1,영업/정상,1,정상영업,,,,,02-2050-5001,3493.73,138-721,서울특별시 송파구 잠실3동 40번지 1호 롯데월드,서울특별시 송파구 올림픽로 240 (잠실동),138-220,롯데하이마트잠실점,2017-07-24 11:23:43,I,2018-08-31 23:59:59,전문점,208589.363343145,445455.90405262,대규모점포,,37.511287,127.097939
594,대규모점포,08_25_01_P,3150000,2013315014507500001,2013-06-17,,1,영업/정상,1,정상영업,,,,,02-2605-3334,3385.1,157-925,서울특별시 강서구 화곡1동 1071번지 19호,"서울특별시 강서구 화곡로18길 24 (화곡동, 강서 뉴타워)",157-925,강서 뉴타워,2019-10-23 09:16:34,U,2019-10-25 02:40:00,그 밖의 대규모점포,185384.322720871,448552.124723353,대규모점포,,37.539106,126.835415
601,대규모점포,08_25_01_P,4711000,2013471018207500001,2013-06-12,,1,영업/정상,1,정상영업,,,,,063)540-8224,13766.59,,전북특별자치도 김제시 검산동 841번지 16호,전북특별자치도 김제시 금성로 114 (검산동),54399,홈플러스(주) 김제점,2024-03-05 09:11:43,U,2024-03-07 02:40:00,대형마트,191146.883710671,255517.370352134,대규모점포,,35.799697,126.902862
602,대규모점포,08_25_01_P,4490000,2012449023407500005,2013-06-10,,1,영업/정상,1,정상영업,,,,,02-2630-2764,13610.0,331-200,충청남도 천안시 서북구 차암동 제3일반산업단지내 지원시설 B1블럭,충청남도 천안시 서북구 3공단6로 77 (차암동),331-200,코스트코 홀세일 천안점,2015-12-09 10:46:40,I,2018-08-31 23:59:59,대형마트,209318.605925811,371245.738706969,대규모점포,,36.842611,127.105269
603,대규모점포,08_25_01_P,4540000,2007454012507500001,2013-06-07,,1,영업/정상,1,정상영업,,,,,041 731 8124,10121.0,320-030,충청남도 논산시 내동 436번지 8호,충청남도 논산시 시민로 187 (내동),,홈플러스(주) 논산점,2024-03-04 17:02:33,U,2024-03-06 02:40:00,대형마트,208765.139329138,298112.90198857,대규모점포,,36.183581,127.09824
606,대규모점포,08_25_01_P,3530000,2009353007007500001,2013-06-03,,1,영업/정상,1,정상영업,,,,,032 870 8124,32550.72,405-230,인천광역시 남동구 간석동 616번지 3호 외 2필지,"인천광역시 남동구 경원대로 971 (간석동,외 2필지)",,홈플러스(주) 간석점,2024-02-29 13:43:48,U,2024-03-02 02:40:00,대형마트,172419.743721009,440865.63488269,대규모점포,,37.469554,126.689014
607,대규모점포,08_25_01_P,3530000,2010353007007500002,2013-06-03,,1,영업/정상,1,정상영업,,,,,032 455 8121,17949.92,405-825,인천광역시 남동구 논현동 650번지 1호,인천광역시 남동구 청능대로 596 (논현동),,홈플러스(주) 인천논현점,2024-02-29 13:46:32,U,2024-03-02 02:40:00,쇼핑센터,175633.883082614,433196.453155142,대규모점포,,37.400546,126.725601
610,대규모점포,08_25_01_P,5060000,2013506010207500001,2013-05-03,,1,영업/정상,1,정상영업,,,,,054-910-6609,12787.0,,경상북도 김천시 아포읍 송천리 산 31번지 1호,경상북도 김천시 아포읍 아포대로 1417,39674,모다아울렛 김천구미점,2025-09-16 16:36:42,U,2025-09-18 02:40:00,쇼핑센터,315259.441476919,295711.729369162,대규모점포,,36.155138,128.281608
611,대규모점포,08_25_01_P,3700000,2013370007807500001,2013-04-30,,1,영업/정상,1,정상영업,,,,,052-990-5125,27653.42,680-816,울산광역시 남구 삼산동 1569번지 1호,울산광역시 남구 화합로 185 (삼산동),680-817,업스퀘어,2017-01-13 21:19:47,I,2018-08-31 23:59:59,복합쇼핑몰,412037.511441268,229430.455341277,대규모점포,,35.541963,129.338829
612,대규모점포,08_25_01_P,5130000,2013513014807500002,2013-04-23,,1,영업/정상,1,정상영업,,,,,053 715 8124,23380.29,712-060,경상북도 경산시 중방동 896번지,경상북도 경산시 경안로 288 (중방동),,홈플러스 경산점,2024-02-29 11:42:00,U,2024-03-02 02:40:00,대형마트,356759.626317364,260575.764529063,대규모점포,,35.832812,128.735665
613,대규모점포,08_25_01_P,5380000,2013538012907500001,2013-04-19,,1,영업/정상,1,정상영업,,,,,055 371 8050,8027.66,,경상남도 양산시 평산동 96번지,경상남도 양산시 평산로 16 (평산동),50548,트레이더스 홀세일클럽 양산점,2024-04-15 10:19:23,U,2024-04-17 02:40:00,그 밖의 대규모점포,395549.598198962,211323.657984759,대규모점포,,35.382266,129.152797
614,대규모점포,08_25_01_P,3360000,2013336010507500001,2013-04-17,,1,영업/정상,1,정상영업,,,,,051-796-1100,97127.46,618-899,부산광역시 강서구 대저2동 3153번지 1호,부산광역시 강서구 유통단지1로 41 (대저2동),,부산 T-plex 산업용품단지,2023-04-03 09:18:26,U,2023-04-05 02:40:00,전문점,378260.668627298,186989.385407114,대규모점포,,35.166298,128.95736
616,대규모점포,08_25_01_P,5130000,2013513014807500001,2013-03-25,,1,영업/정상,1,정상영업,,,,,053-810-5121,2898.0,712-902,경상북도 경산시 하양읍 금락리 35번지 6호,경상북도 경산시 하양읍 대학로 1543,,하양공설시장,2013-03-28 10:34:14,I,2018-08-31 23:59:59,그 밖의 대규모점포,364169.904708067,269893.914956882,대규모점포,,35.915539,128.819556
617,대규모점포,08_25_01_P,3170000,2013317014207500001,2013-03-19,,1,영업/정상,1,정상영업,,,,,02-2136-2233,25015.45,153-023,서울특별시 금천구 가산동 60번지 8호,서울특별시 금천구 디지털로10길 9 (가산동),153-801,현대아울렛,2023-05-01 14:20:32,U,2023-05-03 02:40:00,쇼핑센터,190119.463375612,441716.684586176,대규모점포,,37.477582,126.889084
618,대규모점포,08_25_01_P,3940000,2013394025707500002,2013-03-13,,1,영업/정상,1,정상영업,,,,,1566-2232,31767.45,411-802,경기도 고양시 일산서구 대화동 300번지,경기도 고양시 일산서구 한류월드로 300 (대화동),411-802,고양 원마운트,2014-03-03 10:05:53,I,2018-08-31 23:59:59,복합쇼핑몰,,,대규모점포,,,
619,대규모점포,08_25_01_P,3410000,2013341007107500001,2013-03-11,,1,영업/정상,1,정상영업,,,,,0532572289,11435.71,700-750,대구광역시 중구 대신동 2105번지,대구광역시 중구  큰장로26길  25 (대신동),700-750,서문시장2지구종합상가,2024-01-31 16:58:00,U,2024-02-02 02:40:00,그 밖의 대규모점포,342582.197988377,264326.558135053,대규모점포,,35.868765,128.579489
620,대규모점포,08_25_01_P,4490000,2013449023407500001,2013-02-26,,1,영업/정상,1,정상영업,,,,,901-5800,49516.0,331-728,충청남도 천안시 서북구 불당동 1289번지 펜타포트(1~3층),"충청남도 천안시 서북구 공원로 196 (불당동,펜타포트(1~3층))",,펜타포트 복합쇼핑몰,2021-12-28 14:14:24,U,2021-12-31 02:40:00,복합쇼핑몰,208976.4764518,366326.634370741,대규모점포,,36.798288,127.101375
622,대규모점포,08_25_01_P,5590000,2013559014807500001,2013-02-22,,1,영업/정상,1,정상영업,,,,,031-894-2500,24798.0,482-170,경기도 양주시 회정동 453번지 19호,경기도 양주시 평화로 1593 (회정동),482-170,(주)LF네트웍스 양주점,2013-02-22 15:25:47,I,2018-08-31 23:59:59,쇼핑센터,204539.305721776,480980.761356539,대규모점포,,37.831384,127.052348
623,대규모점포,08_25_01_P,3220000,2013322016207500001,2013-02-15,,1,영업/정상,1,정상영업,,,,,545-9612,3718.56,,,서울특별시 강남구 학동로4길 15 (논현동),135-822,동화상가(주),2013-02-15 11:06:24,I,2018-08-31 23:59:59,그 밖의 대규모점포,202010.0103397,445368.131754546,대규모점포,,37.510533,127.023523
624,대규모점포,08_25_01_P,3940000,2013394025707500001,2013-01-24,,1,영업/정상,1,정상영업,,,,,031-936-1123,27094.76,,경기도 고양시 일산서구 대화동 2703번지,"경기도 고양시 일산서구 킨텍스로 171 (대화동, 이마트타운)",10390,(주)이마트 스타필드마켓 일산점,2025-09-05 13:50:58,U,2025-09-08 02:40:00,대형마트,177349.707402843,462162.606173795,대규모점포,,37.66157,126.744084
625,대규모점포,08_25_01_P,3510500,2013351013107500001,2013-01-22,,1,영업/정상,1,정상영업,,,,,032-439-8143,4033.64,,인천광역시 남구 주안동 929번지 16호,인천광역시 남구  경원대로  890 (주안동),,보미리즌빌,2018-04-21 10:58:26,I,2018-08-31 23:59:59,그 밖의 대규모점포,172527.500008351,440045.06513816,대규모점포,,37.462164,126.690263
626,대규모점포,08_25_01_P,3780000,2013378021907500001,2013-01-15,,1,영업/정상,1,정상영업,,,,,02-2145-8000,6214.88,463-400,경기도 성남시 분당구 삼평동 741번지,경기도 성남시 분당구 대왕판교로606번길 58 (삼평동),,롯데마트 판교점,2025-05-13 16:44:51,U,2025-05-15 02:40:00,대형마트,209993.600292929,432609.081811328,대규모점포,,37.395522,127.113649
627,대규모점포,08_25_01_P,3640000,2013364011407500001,2013-01-14,,1,영업/정상,1,정상영업,,,,,042-615-1234,23787.54,300-200,대전광역시 동구 용전동 63번지 3호,대전광역시 동구 동서대로 1689 (용전동),,(주)이마트 대전터미널점,2013-01-14 11:52:05,I,2018-08-31 23:59:59,,239122.638390937,316705.693668735,대규모점포,,36.350384,127.436638
628,대규모점포,08_25_01_P,4610000,2013461009307500001,2013-01-11,,1,영업/정상,1,정상영업,,,,,041-331-8500,4533.99,340-831,충청남도 예산군 응봉면 송석리 205번지 3호 외 5필지,충청남도 예산군 응봉면 충서로 255,340-831,내포패션아울렛,2013-12-22 12:42:17,I,2018-08-31 23:59:59,그 밖의 대규모점포,179348.34099908,351351.257286939,대규모점포,,36.663159,126.769802
629,대규모점포,08_25_01_P,5600000,2010560008907500001,2013-01-07,,1,영업/정상,1,정상영업,,,,,031-540-1201,8889.96,487-030,경기도 포천시 설운동 2번지,경기도 포천시 호국로 915 (설운동),487-030,(주)이마트 포천점,2024-04-18 09:36:16,U,2024-04-20 02:40:00,대형마트,214023.590086578,482831.746228286,대규모점포,,37.847965,127.160118
630,대규모점포,08_25_01_P,4080000,2013408014107500001,2013-01-07,,1,영업/정상,1,정상영업,,,,,031-678-1234,10035.66,456-240,경기도 안성시 석정동 149번지 3호,경기도 안성시 중앙로 246 (석정동),,(주)이마트안성,2024-04-23 09:29:37,U,2024-04-25 02:40:00,대형마트,222711.793919182,390149.787207476,대규모점포,,37.012726,127.255989
631,대규모점포,08_25_01_P,5090000,2013509007907500001,2013-01-04,,1,영업/정상,1,정상영업,,,,,,4677.79,750-804,경상북도 영주시 풍기읍 창락리 160번지 6호,경상북도 영주시 풍기읍 죽령로 1365,750-804,소백산인삼시장,2013-01-04 12:59:31,I,2018-08-31 23:59:59,그 밖의 대규모점포,331898.639161569,376929.304750739,대규모점포,,36.884669,128.480318
632,대규모점포,08_25_01_P,4050000,2013405028807500001,2013-01-03,,1,영업/정상,1,정상영업,,,,,031 289 5602,13960.94,,,경기도 용인시 기흥구  탑실로  38 (공세동),446-902,코스트코홀세일 공세점,2015-12-10 14:00:04,I,2018-08-31 23:59:59,대형마트,209595.481846485,415153.934258813,대규모점포,,37.238251,127.108929
633,대규모점포,08_25_01_P,3560000,2012356010207500003,2012-12-28,,1,영업/정상,1,정상영업,,,,,562-1286,4912.37,,인천광역시 서구 오류동 1640-2 검단종합공구상가,"인천광역시 서구 보듬5로 13, 검단종합공구상가 (오류동)",22666,검단공구상가,2021-11-18 18:36:57,U,2021-11-20 02:40:00,그 밖의 대규모점포,165726.000299708,454699.392364437,대규모점포,,37.593969,126.612701
634,대규모점포,08_25_01_P,3010000,2012301010007500004,2012-12-27,,1,영업/정상,1,정상영업,,,,2013-01-18,02-7262500,11576.19,100-162,서울특별시 중구 봉래동2가 122번지 11호,서울특별시 중구 한강대로 405 (봉래동2가),,롯데아울렛 서울역점,2012-12-27 14:38:37,I,2018-08-31 23:59:59,쇼핑센터,197229.761422932,450418.159244379,대규모점포,,37.556031,126.969436
635,대규모점포,08_25_01_P,3660000,2012366012507500003,2012-12-24,,1,영업/정상,1,정상영업,,,,,042-610-6154,11282.78,302-834,대전광역시 서구 만년동 301번지,대전광역시 서구 대덕대로 408 (만년동),,테크노월드,2024-11-20 16:19:58,U,2024-11-22 02:40:00,구분없음,234031.197153606,318785.398711515,대규모점포,,36.369318,127.380009
636,대규모점포,08_25_01_P,5670000,2012567035807500002,2012-12-20,,1,영업/정상,1,정상영업,,,,,055-279-2702,20536.26,642-831,경상남도 창원시 성산구 상남동 80번지,경상남도 창원시 성산구 상남로 121 (상남동),642-831,롯데백화점 창원점 신관,2025-12-31 07:52:17,U,2026-01-02 02:40:00,백화점,353152.773639216,192998.728028448,대규모점포,,35.224575,128.683011
638,대규모점포,08_25_01_P,5350000,2012535019607500004,2012-11-27,,1,영업/정상,1,정상영업,,,,,326-6841,0.0,621-708,경상남도 김해시 외동 1249번지,,,(주)프리마건설,2012-11-27 08:51:43,I,2018-08-31 23:59:59,그 밖의 대규모점포,,,대규모점포,,,
639,대규모점포,08_25_01_P,3940000,2012394025707500011,2012-11-21,,1,영업/정상,1,정상영업,,,,,02-380-9414,12545.0,,경기도 고양시 일산동구 중산동 1809번지,경기도 고양시 일산동구 무궁화로 237 (중산동),10311,이마트 풍산점,2024-04-22 09:32:39,U,2024-04-25 02:40:00,대형마트,181149.682181138,463521.801944649,대규모점포,,37.673902,126.787115
640,대규모점포,08_25_01_P,4000000,2012400012507500002,2012-11-12,,1,영업/정상,1,정상영업,,,,,03180778924,19241.74,447-290,경기도 오산시 수청동 610번지,경기도 오산시 청학로 238 (수청동),,홈플러스(주)오산점,2025-05-07 18:03:43,U,2025-05-09 02:40:00,대형마트,205417.553946702,407590.511508128,대규모점포,,37.170135,127.061791
641,대규모점포,08_25_01_P,4520000,2012452030107500001,2012-10-30,,1,영업/정상,1,정상영업,,,,,041-570-2521,21456.18,,충청남도 아산시 모종동 555번지 5호 아산시외버스터미널복합시설,"충청남도 아산시 번영로 225, 아산시외버스터미널복합시설 (모종동)",31522,롯데마트 터미널점,2025-05-12 10:15:00,U,2025-05-14 02:40:00,대형마트,201341.191554264,364818.034415495,대규모점포,,36.784735,127.01582
643,대규모점포,08_25_01_P,3400000,2012340004407500006,2012-10-17,,1,영업/정상,1,정상영업,,,,,02-2185-1230,53233.98,619-953,부산광역시 기장군 장안읍 좌동리 산 32번지 일원,부산광역시 기장군 장안읍 정관로 1133,619-953,신세계사이먼,2023-11-01 14:31:08,U,2023-11-03 02:40:00,전문점,403214.458027912,204878.049675429,대규모점포,,35.322684,129.235491
644,대규모점포,08_25_01_P,3070000,2012307019707500002,2012-10-16,,1,영업/정상,1,정상영업,,,,,02-926-6405,14370.0,136-751,서울특별시 성북구 돈암동 609번지 1호,서울특별시 성북구 성북로4길 52 (돈암동),136-751,동소문스카이상가,2025-01-22 18:09:57,U,2025-01-24 02:40:00,복합쇼핑몰,200841.726990037,454721.505180141,대규모점포,,37.594808,127.010319
645,대규모점포,08_25_01_P,5710000,2012436012407500016,2012-10-08,,1,영업/정상,1,정상영업,,,,,043-257-0521,34418.15,361-370,충청북도 청주시 흥덕구 비하동 332-1번지 외21필지,"충청북도 청주시 흥덕구 2순환로 1004 (비하동,외21필지)",,롯데쇼핑(주)롯데쇼핑프라자 청주점,2025-07-03 18:16:10,U,2025-07-05 02:40:00,복합쇼핑몰,237628.527550704,349407.675724406,대규모점포,,36.64513,127.421582
646,대규모점포,08_25_01_P,5540000,2012554012307500002,2012-09-21,,1,영업/정상,1,정상영업,,,,,762-1207,3227.0,464-861,경기도 광주시 초월읍 산이리 77번지 6호,경기도 광주시 초월읍 경충대로 907,464-861,(주)모다이노칩 곤지암점,2024-05-07 17:41:33,U,2024-05-09 02:40:00,전문점,227621.408059678,429073.295091928,대규모점포,,37.363308,127.312589
647,대규모점포,08_25_01_P,3170000,2012317014207500004,2012-09-13,,1,영업/정상,1,정상영업,,,,,02-2109-7013,32887.19,153-801,서울특별시 금천구 가산동 60번지 20호,서울특별시 금천구 벚꽃로 266 (가산동),,마리오아울렛 3관,2023-02-28 21:05:56,U,2023-03-03 02:40:00,쇼핑센터,189759.713050655,441814.115920983,대규모점포,,37.478456,126.885016
648,대규모점포,08_25_01_P,3010000,2012301010007500003,2012-08-31,,1,영업/정상,1,정상영업,,2024-09-06,2024-09-26,2024-09-27,02-6262-4202,17356.62,100-196,서울특별시 중구 을지로6가 21번지 31호,서울특별시 중구 을지로 264 (을지로6가),100-196,던던 동대문점,2024-10-16 13:25:00,U,2024-10-18 02:40:00,쇼핑센터,200548.038848161,451497.626572161,대규모점포,,37.565761,127.006991
649,대규모점포,08_25_01_P,5710000,2012436012407500015,2012-08-17,,1,영업/정상,1,정상영업,,,,,043-909-2233,42018.02,361-270,충청북도 청주시 흥덕구 복대동 3380번지,충청북도 청주시 흥덕구 직지대로 308 (복대동),361-270,현대백화점 충청점,2024-05-02 15:40:39,U,2024-05-04 02:40:00,백화점,238047.286714699,349368.880808052,대규모점포,,36.644764,127.426263
650,대규모점포,08_25_01_P,3980000,2012398010807500008,2012-08-14,,1,영업/정상,1,정상영업,,,,,0315508083,30700.27,471-040,경기도 구리시 동구동 677번지,경기도 구리시 경춘로 261 (인창동),,롯데쇼핑(주)구리점,2025-05-22 14:52:05,U,2025-05-24 02:40:00,백화점,212647.021160325,455616.655198478,대규모점포,,37.602787,127.144008
651,대규모점포,08_25_01_P,3550000,19982,2012-08-01,,1,영업/정상,1,정상영업,,,,,0325502521,19418.0,407-050,인천광역시 계양구 계산동 1059번지 1호,인천광역시 계양구 장제로 822 (계산동),407-813,롯데쇼핑(주) 롯데마트 계양점,2025-12-29 11:02:14,U,2025-12-31 02:40:00,대형마트,176599.816295302,448767.427225648,대규모점포,,37.540864,126.736014
652,대규모점포,08_25_01_P,5350000,2012535019607500003,2012-07-31,,1,영업/정상,1,정상영업,,,,,02-820-8524,14842.0,,경상남도 김해시 삼정동 426번지 메가마트 김해점,경상남도 김해시 김해대로2492번길 20 (삼정동),50935,메가마트 김해점,2024-12-27 10:38:28,U,2024-12-29 02:40:00,대형마트,372941.32985139,193521.212396072,대규모점포,,35.226069,128.900375
653,대규모점포,08_25_01_P,3990000,2012399015407500001,2012-07-30,,1,영업/정상,1,정상영업,,,,,031-550-1252,9833.49,,경기도 남양주시 별내동 989번지 이마트,"경기도 남양주시 순화궁로 167, 이마트 (별내동)",12113,이마트 별내점,2024-04-22 16:40:05,U,2024-04-24 02:40:00,대형마트,211047.543226491,460054.746656557,대규모점포,,37.642794,127.125961
656,대규모점포,08_25_01_P,4701000,2012470011407500002,2012-07-12,,1,영업/정상,1,정상영업,,,,,063-620-2500,15683.78,,전북특별자치도 남원시 향교동 2-6 롯데마트,"전북특별자치도 남원시 춘향로 96, 롯데마트 (향교동)",55726,롯데쇼핑(주) 롯데마트 남원점,2025-12-26 17:09:45,U,2025-12-28 02:40:00,대형마트,235597.223811364,213824.78339516,대규모점포,,35.423333,127.392776
657,대규모점포,08_25_01_P,4191000,2012419020307500002,2012-07-06,,1,영업/정상,1,정상영업,,,,,033-649-8027,18737.35,220-934,강원특별자치도 원주시 관설동 1453번지,강원특별자치도 원주시 치악로 1489 (관설동),,홈플러스 원주점,2024-03-06 16:26:41,U,2024-03-08 02:40:00,대형마트,285677.402683418,424408.068770392,대규모점포,,37.317741,127.967349
